[{"ibge":"3500105","nome":"Adamantina","populacao":35642,"eleitores":25505,"colocacao":161,"votos":87,"pctVotos":0.0048,"lat":-21.682,"lon":-51.0737,"emendas":[],"indicacoes":[]},{"ibge":"3500204","nome":"Adolfo","populacao":4478,"eleitores":4163,"colocacao":490,"votos":7,"pctVotos":0.0024,"lat":-21.2325,"lon":-49.6451,"emendas":[],"indicacoes":[]},{"ibge":"3500303","nome":"Aguaí","populacao":32888,"eleitores":24803,"colocacao":148,"votos":98,"pctVotos":0.0067,"lat":-22.0572,"lon":-46.9735,"emendas":[],"indicacoes":[]},{"ibge":"3500402","nome":"Águas da Prata","populacao":7470,"eleitores":5934,"colocacao":353,"votos":18,"pctVotos":0.0044,"lat":-21.9319,"lon":-46.7176,"emendas":[],"indicacoes":[]},{"ibge":"3500501","nome":"Águas de Lindóia","populacao":18245,"eleitores":13854,"colocacao":203,"votos":59,"pctVotos":0.0059,"lat":-22.4733,"lon":-46.6314,"emendas":[],"indicacoes":[]},{"ibge":"3500550","nome":"Águas de Santa Bárbara","populacao":7407,"eleitores":5385,"colocacao":288,"votos":27,"pctVotos":0.008,"lat":-22.8812,"lon":-49.2421,"emendas":[],"indicacoes":[]},{"ibge":"3500600","nome":"Águas de São Pedro","populacao":2829,"eleitores":4301,"colocacao":528,"votos":5,"pctVotos":0.0017,"lat":-22.5977,"lon":-47.8734,"emendas":[],"indicacoes":[]},{"ibge":"3500709","nome":"Agudos","populacao":38879,"eleitores":29139,"colocacao":218,"votos":51,"pctVotos":0.0026,"lat":-22.4694,"lon":-48.9863,"emendas":[],"indicacoes":[]},{"ibge":"3500758","nome":"Alambari","populacao":6330,"eleitores":5126,"colocacao":464,"votos":8,"pctVotos":0.0023,"lat":-23.5503,"lon":-47.898,"emendas":[],"indicacoes":[]},{"ibge":"3500808","nome":"Alfredo Marcondes","populacao":4556,"eleitores":4009,"colocacao":508,"votos":6,"pctVotos":0.0021,"lat":-21.9527,"lon":-51.414,"emendas":[],"indicacoes":[]},{"ibge":"3500907","nome":"Altair","populacao":3479,"eleitores":2996,"colocacao":505,"votos":6,"pctVotos":0.0028,"lat":-20.5242,"lon":-49.0571,"emendas":[],"indicacoes":[]},{"ibge":"3501004","nome":"Altinópolis","populacao":17156,"eleitores":12810,"colocacao":303,"votos":25,"pctVotos":0.003,"lat":-21.0214,"lon":-47.3712,"emendas":[],"indicacoes":[]},{"ibge":"3501103","nome":"Alto Alegre","populacao":3883,"eleitores":3746,"colocacao":506,"votos":6,"pctVotos":0.0024,"lat":-21.5811,"lon":-50.168,"emendas":[],"indicacoes":[]},{"ibge":"3501152","nome":"Alumínio","populacao":17591,"eleitores":14158,"colocacao":337,"votos":20,"pctVotos":0.002,"lat":-23.5306,"lon":-47.2546,"emendas":[],"indicacoes":[]},{"ibge":"3501202","nome":"Álvares Florence","populacao":3978,"eleitores":3674,"colocacao":491,"votos":7,"pctVotos":0.0027,"lat":-20.3203,"lon":-49.9141,"emendas":[],"indicacoes":[]},{"ibge":"3501301","nome":"Álvares Machado","populacao":28250,"eleitores":17798,"colocacao":338,"votos":20,"pctVotos":0.0015,"lat":-22.0764,"lon":-51.4722,"emendas":[],"indicacoes":[]},{"ibge":"3501400","nome":"Álvaro de Carvalho","populacao":4896,"eleitores":2835,"colocacao":0,"votos":0,"pctVotos":0,"lat":-22.0841,"lon":-49.719,"emendas":[],"indicacoes":[]},{"ibge":"3501509","nome":"Alvinlândia","populacao":2923,"eleitores":2689,"colocacao":0,"votos":0,"pctVotos":0,"lat":-22.4435,"lon":-49.7623,"emendas":[],"indicacoes":[]},{"ibge":"3501608","nome":"Americana","populacao":246655,"eleitores":182544,"colocacao":33,"votos":426,"pctVotos":0.0034,"lat":-22.7374,"lon":-47.3331,"emendas":[],"indicacoes":[]},{"ibge":"3501707","nome":"Américo Brasiliense","populacao":33757,"eleitores":27504,"colocacao":167,"votos":82,"pctVotos":0.0044,"lat":-21.7288,"lon":-48.1147,"emendas":[],"indicacoes":[]},{"ibge":"3501806","nome":"Américo de Campos","populacao":5975,"eleitores":4804,"colocacao":507,"votos":6,"pctVotos":0.0017,"lat":-20.2985,"lon":-49.7359,"emendas":[],"indicacoes":[]},{"ibge":"3501905","nome":"Amparo","populacao":69717,"eleitores":54340,"colocacao":47,"votos":317,"pctVotos":0.0087,"lat":-22.7088,"lon":-46.772,"emendas":[],"indicacoes":[]},{"ibge":"3502002","nome":"Analândia","populacao":4684,"eleitores":4971,"colocacao":588,"votos":2,"pctVotos":0.0007,"lat":-22.1289,"lon":-47.6619,"emendas":[],"indicacoes":[]},{"ibge":"3502101","nome":"Andradina","populacao":61473,"eleitores":42676,"colocacao":158,"votos":89,"pctVotos":0.003,"lat":-20.8948,"lon":-51.3786,"emendas":[],"indicacoes":[]},{"ibge":"3502200","nome":"Angatuba","populacao":24512,"eleitores":18038,"colocacao":294,"votos":26,"pctVotos":0.0022,"lat":-23.4917,"lon":-48.4139,"emendas":[],"indicacoes":[]},{"ibge":"3502309","nome":"Anhembi","populacao":5766,"eleitores":5771,"colocacao":330,"votos":21,"pctVotos":0.0058,"lat":-22.793,"lon":-48.1336,"emendas":[],"indicacoes":[{"id":28,"segmento":"Assistência Social","objeto":"01 Fiat Strada para o Fundo Social de Solidariedade","valorEstimado":null,"status":"Demanda em articulação - sem valor definido","categoria":"Veículo - Fundo Social de Solidariedade","escola":null,"prefeito":null,"vereador":null,"validacao":"Não localizado","fonteValidacao":"Painéis Power BI oficiais - Emendas Impositivas 2024/2025/2026 e Emendas Voluntárias 2023/2024/2025/2026 (governo.sp.gov.br/sec_governo_relacoes/painel), filtrados por Parlamentar = Paulo Mansur, consultados em 12/07/2026.","observacaoValidacao":"Item ainda não localizado como emenda parlamentar formalizada em nenhum dos 7 painéis oficiais de emendas de Paulo Mansur. Trata-se de demanda em fase de articulação política, sem código de emenda/indicação vinculado nos dados abertos do governo até o momento da consulta.","observacoes":null,"fonteArquivo":"VEÍCULOS E MÁQUINAS - PAULO MANSUR.docx"}]},{"ibge":"3502408","nome":"Anhumas","populacao":4108,"eleitores":3380,"colocacao":568,"votos":3,"pctVotos":0.0012,"lat":-22.2934,"lon":-51.3895,"emendas":[],"indicacoes":[]},{"ibge":"3502507","nome":"Aparecida","populacao":33223,"eleitores":26866,"colocacao":169,"votos":78,"pctVotos":0.0039,"lat":-22.8495,"lon":-45.2325,"emendas":[],"indicacoes":[]},{"ibge":"3502606","nome":"Aparecida Doeste","populacao":4124,"eleitores":3880,"colocacao":331,"votos":21,"pctVotos":0.0077,"lat":-20.4487,"lon":-50.8835,"emendas":[],"indicacoes":[]},{"ibge":"3502705","nome":"Apiaí","populacao":24886,"eleitores":18885,"colocacao":272,"votos":30,"pctVotos":0.0023,"lat":-24.5108,"lon":-48.8443,"emendas":[],"indicacoes":[]},{"ibge":"3502754","nome":"Araçariguama","populacao":22168,"eleitores":18021,"colocacao":252,"votos":35,"pctVotos":0.0031,"lat":-23.4366,"lon":-47.0608,"emendas":[],"indicacoes":[]},{"ibge":"3502804","nome":"Araçatuba","populacao":207775,"eleitores":145672,"colocacao":93,"votos":171,"pctVotos":0.0016,"lat":-21.2076,"lon":-50.4401,"emendas":[],"indicacoes":[{"id":3,"segmento":"Educação","objeto":"Aquisição de ônibus escolar","valorEstimado":null,"status":"Demanda em articulação - sem valor definido","categoria":"Ônibus Escolar","escola":null,"prefeito":null,"vereador":null,"validacao":"Não localizado","fonteValidacao":"Painéis Power BI oficiais - Emendas Impositivas 2024/2025/2026 e Emendas Voluntárias 2023/2024/2025/2026 (governo.sp.gov.br/sec_governo_relacoes/painel), filtrados por Parlamentar = Paulo Mansur, consultados em 12/07/2026.","observacaoValidacao":"Item ainda não localizado como emenda parlamentar formalizada em nenhum dos 7 painéis oficiais de emendas de Paulo Mansur. Trata-se de demanda em fase de articulação política, sem código de emenda/indicação vinculado nos dados abertos do governo até o momento da consulta.","observacoes":null,"fonteArquivo":"Demandas Educação 2025.xlsx + VEÍCULOS E MÁQUINAS - PAULO MANSUR.docx"}]},{"ibge":"3502903","nome":"Araçoiaba da Serra","populacao":33656,"eleitores":26388,"colocacao":173,"votos":76,"pctVotos":0.0044,"lat":-23.5029,"lon":-47.6166,"emendas":[{"id":18,"segmento":"Saúde","objeto":"Custeio","valor":1500000,"status":"OK","ano":2023,"tipo":"Voluntária","lote":"Voluntárias - 2023","secretaria":"Saúde","beneficiario":"Araçoiaba da Serra","codigoEmenda":null,"numeroIndicacao":"3062/25","cancelada":"Não","validacao":"Confirmado","fonteValidacao":"Painel Power BI - Transferências Voluntárias 2023 - Dep. Estaduais (governo.sp.gov.br/sec_governo_relacoes/painel/voluntarias_estaduais_2023)","observacaoValidacao":"Confirmado individualmente no painel oficial (código, valor, cidade, indicação). Total R$ 11.000.000 confere exatamente - validando as correções de valor aplicadas (R$ 1.500.000 para Araçoiaba da Serra e Capivari; R$ 4.000.000 para Santa Casa de Santos).","observacoes":"Valor original digitado como texto ('R$ 1.500,000,00'); corrigido para R$ 1.500.000,00 com base na conferência do total declarado na planilha original."},{"id":29,"segmento":"Saúde","objeto":"Saúde","valor":4000000,"status":"OK","ano":2024,"tipo":"Voluntária","lote":"Voluntárias - 2024","secretaria":"Saúde","beneficiario":"Araçoiaba da Serra","codigoEmenda":null,"numeroIndicacao":"7250/24","cancelada":"Não","validacao":"Confirmado","fonteValidacao":"Painel Power BI - Transferências Voluntárias 2024 - Dep. Estaduais (governo.sp.gov.br/sec_governo_relacoes/painel/voluntarias_estaduais_2024)","observacaoValidacao":"Confirmado individualmente no painel oficial (código, valor, cidade, indicação, status). Total R$ 20.000.000 confere exatamente com os 7 registros.","observacoes":null}],"indicacoes":[]},{"ibge":"3503000","nome":"Aramina","populacao":5526,"eleitores":4582,"colocacao":465,"votos":8,"pctVotos":0.0026,"lat":-20.0882,"lon":-47.7873,"emendas":[],"indicacoes":[]},{"ibge":"3503109","nome":"Arandu","populacao":7050,"eleitores":5581,"colocacao":329,"votos":21,"pctVotos":0.0054,"lat":-23.1386,"lon":-49.0487,"emendas":[],"indicacoes":[]},{"ibge":"3503158","nome":"Arapeí","populacao":2355,"eleitores":2570,"colocacao":543,"votos":4,"pctVotos":0.0023,"lat":-22.6717,"lon":-44.4441,"emendas":[],"indicacoes":[]},{"ibge":"3503208","nome":"Araraquara","populacao":252318,"eleitores":169925,"colocacao":49,"votos":295,"pctVotos":0.0025,"lat":-21.7845,"lon":-48.178,"emendas":[],"indicacoes":[{"id":19,"segmento":"Educação","objeto":"Climatização de escola estadual (ar-condicionado)","valorEstimado":null,"status":"Demanda em articulação - sem valor definido","categoria":"Climatização (Ar-condicionado)","escola":"EE Francisco Pedro Monteiro da Silva","prefeito":null,"vereador":null,"validacao":"Não localizado","fonteValidacao":"Painéis Power BI oficiais - Emendas Impositivas 2024/2025/2026 e Emendas Voluntárias 2023/2024/2025/2026 (governo.sp.gov.br/sec_governo_relacoes/painel), filtrados por Parlamentar = Paulo Mansur, consultados em 12/07/2026.","observacaoValidacao":"Item ainda não localizado como emenda parlamentar formalizada em nenhum dos 7 painéis oficiais de emendas de Paulo Mansur. Trata-se de demanda em fase de articulação política, sem código de emenda/indicação vinculado nos dados abertos do governo até o momento da consulta.","observacoes":null,"fonteArquivo":"Demandas Educação 2025.xlsx + CONSTRUÇÃO DE QUADRAS ESPORTIVAS e CLIMATIZAÇÃO.docx"}]},{"ibge":"3503307","nome":"Araras","populacao":135331,"eleitores":95992,"colocacao":63,"votos":253,"pctVotos":0.0037,"lat":-22.3572,"lon":-47.3842,"emendas":[],"indicacoes":[]},{"ibge":"3503356","nome":"Arco-íris","populacao":2085,"eleitores":2351,"colocacao":586,"votos":2,"pctVotos":0.0012,"lat":-21.7728,"lon":-50.466,"emendas":[],"indicacoes":[]},{"ibge":"3503406","nome":"Arealva","populacao":8280,"eleitores":6561,"colocacao":512,"votos":6,"pctVotos":0.0014,"lat":-22.031,"lon":-48.9135,"emendas":[],"indicacoes":[]},{"ibge":"3503505","nome":"Areias","populacao":3625,"eleitores":3599,"colocacao":544,"votos":4,"pctVotos":0.0017,"lat":-22.5786,"lon":-44.6992,"emendas":[],"indicacoes":[]},{"ibge":"3503604","nome":"Areiópolis","populacao":10257,"eleitores":8274,"colocacao":322,"votos":23,"pctVotos":0.004,"lat":-22.6672,"lon":-48.6681,"emendas":[],"indicacoes":[]},{"ibge":"3503703","nome":"Ariranha","populacao":7653,"eleitores":6572,"colocacao":418,"votos":11,"pctVotos":0.0024,"lat":-21.1872,"lon":-48.7904,"emendas":[],"indicacoes":[]},{"ibge":"3503802","nome":"Artur Nogueira","populacao":53157,"eleitores":38349,"colocacao":86,"votos":199,"pctVotos":0.0075,"lat":-22.5727,"lon":-47.1727,"emendas":[],"indicacoes":[]},{"ibge":"3503901","nome":"Arujá","populacao":89943,"eleitores":69543,"colocacao":123,"votos":121,"pctVotos":0.0025,"lat":-23.3965,"lon":-46.32,"emendas":[],"indicacoes":[]},{"ibge":"3503950","nome":"Aspásia","populacao":1873,"eleitores":1924,"colocacao":589,"votos":2,"pctVotos":0.0015,"lat":-20.16,"lon":-50.728,"emendas":[],"indicacoes":[]},{"ibge":"3504008","nome":"Assis","populacao":104642,"eleitores":70060,"colocacao":69,"votos":238,"pctVotos":0.0048,"lat":-22.66,"lon":-50.4183,"emendas":[],"indicacoes":[]},{"ibge":"3504107","nome":"Atibaia","populacao":166043,"eleitores":114880,"colocacao":57,"votos":263,"pctVotos":0.0033,"lat":-23.1171,"lon":-46.5563,"emendas":[],"indicacoes":[{"id":8,"segmento":"Educação","objeto":"Aquisição de equipamentos de informática (Chromebooks e notebooks)","valorEstimado":null,"status":"Demanda em articulação - sem valor definido","categoria":"Equipamentos de Informática (Chromebooks/Notebooks)","escola":"EE Carlos José Ribeiro Professor","prefeito":null,"vereador":null,"validacao":"Não localizado","fonteValidacao":"Painéis Power BI oficiais - Emendas Impositivas 2024/2025/2026 e Emendas Voluntárias 2023/2024/2025/2026 (governo.sp.gov.br/sec_governo_relacoes/painel), filtrados por Parlamentar = Paulo Mansur, consultados em 12/07/2026.","observacaoValidacao":"Item ainda não localizado como emenda parlamentar formalizada em nenhum dos 7 painéis oficiais de emendas de Paulo Mansur. Trata-se de demanda em fase de articulação política, sem código de emenda/indicação vinculado nos dados abertos do governo até o momento da consulta.","observacoes":null,"fonteArquivo":"Demandas Educação 2025.xlsx"},{"id":35,"segmento":"Infraestrutura","objeto":"01 Triturador de Galhos de Grande Porte","valorEstimado":null,"status":"Demanda em articulação - sem valor definido","categoria":"Maquinário","escola":null,"prefeito":null,"vereador":null,"validacao":"Não localizado","fonteValidacao":"Painéis Power BI oficiais - Emendas Impositivas 2024/2025/2026 e Emendas Voluntárias 2023/2024/2025/2026 (governo.sp.gov.br/sec_governo_relacoes/painel), filtrados por Parlamentar = Paulo Mansur, consultados em 12/07/2026.","observacaoValidacao":"Item ainda não localizado como emenda parlamentar formalizada em nenhum dos 7 painéis oficiais de emendas de Paulo Mansur. Trata-se de demanda em fase de articulação política, sem código de emenda/indicação vinculado nos dados abertos do governo até o momento da consulta.","observacoes":null,"fonteArquivo":"VEÍCULOS E MÁQUINAS - PAULO MANSUR.docx"}]},{"ibge":"3504206","nome":"Auriflama","populacao":13873,"eleitores":11153,"colocacao":244,"votos":37,"pctVotos":0.0046,"lat":-20.6836,"lon":-50.5572,"emendas":[],"indicacoes":[]},{"ibge":"3504305","nome":"Avaí","populacao":4519,"eleitores":4345,"colocacao":449,"votos":9,"pctVotos":0.0032,"lat":-22.1514,"lon":-49.3356,"emendas":[],"indicacoes":[]},{"ibge":"3504404","nome":"Avanhandava","populacao":11438,"eleitores":7472,"colocacao":530,"votos":5,"pctVotos":0.001,"lat":-21.4584,"lon":-49.9509,"emendas":[],"indicacoes":[]},{"ibge":"3504503","nome":"Avaré","populacao":96098,"eleitores":64309,"colocacao":78,"votos":216,"pctVotos":0.0052,"lat":-23.1067,"lon":-48.9251,"emendas":[],"indicacoes":[]},{"ibge":"3504602","nome":"Bady Bassitt","populacao":28909,"eleitores":16037,"colocacao":260,"votos":33,"pctVotos":0.0033,"lat":-20.9197,"lon":-49.4385,"emendas":[],"indicacoes":[]},{"ibge":"3504701","nome":"Balbinos","populacao":3963,"eleitores":1445,"colocacao":542,"votos":4,"pctVotos":0.004,"lat":-21.8963,"lon":-49.3619,"emendas":[],"indicacoes":[]},{"ibge":"3504800","nome":"Bálsamo","populacao":9854,"eleitores":7467,"colocacao":397,"votos":13,"pctVotos":0.0025,"lat":-20.7348,"lon":-49.5865,"emendas":[],"indicacoes":[]},{"ibge":"3504909","nome":"Bananal","populacao":10109,"eleitores":8274,"colocacao":304,"votos":25,"pctVotos":0.0043,"lat":-22.6819,"lon":-44.3281,"emendas":[],"indicacoes":[]},{"ibge":"3505005","nome":"Barão de Antonina","populacao":3618,"eleitores":2953,"colocacao":613,"votos":1,"pctVotos":0.0005,"lat":-23.6284,"lon":-49.5634,"emendas":[],"indicacoes":[]},{"ibge":"3505104","nome":"Barbosa","populacao":5659,"eleitores":5164,"colocacao":448,"votos":9,"pctVotos":0.0025,"lat":-21.2657,"lon":-49.9518,"emendas":[],"indicacoes":[]},{"ibge":"3505203","nome":"Bariri","populacao":32405,"eleitores":23606,"colocacao":196,"votos":62,"pctVotos":0.0039,"lat":-22.073,"lon":-48.7438,"emendas":[],"indicacoes":[]},{"ibge":"3505302","nome":"Barra Bonita","populacao":35159,"eleitores":28555,"colocacao":113,"votos":133,"pctVotos":0.0066,"lat":-22.4909,"lon":-48.5583,"emendas":[],"indicacoes":[]},{"ibge":"3505351","nome":"Barra do Chapéu","populacao":5256,"eleitores":4743,"colocacao":488,"votos":7,"pctVotos":0.0021,"lat":-24.4722,"lon":-49.0238,"emendas":[],"indicacoes":[]},{"ibge":"3505401","nome":"Barra do Turvo","populacao":6922,"eleitores":6578,"colocacao":423,"votos":10,"pctVotos":0.0023,"lat":-24.759,"lon":-48.5013,"emendas":[],"indicacoes":[]},{"ibge":"3505500","nome":"Barretos","populacao":126600,"eleitores":86367,"colocacao":88,"votos":181,"pctVotos":0.0032,"lat":-20.5531,"lon":-48.5698,"emendas":[],"indicacoes":[{"id":9,"segmento":"Educação","objeto":"Aquisição de equipamentos de informática (Chromebooks e notebooks)","valorEstimado":null,"status":"Demanda em articulação - sem valor definido","categoria":"Equipamentos de Informática (Chromebooks/Notebooks)","escola":"EE Paulina Nunes de Moraes Professora","prefeito":null,"vereador":null,"validacao":"Não localizado","fonteValidacao":"Painéis Power BI oficiais - Emendas Impositivas 2024/2025/2026 e Emendas Voluntárias 2023/2024/2025/2026 (governo.sp.gov.br/sec_governo_relacoes/painel), filtrados por Parlamentar = Paulo Mansur, consultados em 12/07/2026.","observacaoValidacao":"Item ainda não localizado como emenda parlamentar formalizada em nenhum dos 7 painéis oficiais de emendas de Paulo Mansur. Trata-se de demanda em fase de articulação política, sem código de emenda/indicação vinculado nos dados abertos do governo até o momento da consulta.","observacoes":null,"fonteArquivo":"Demandas Educação 2025.xlsx"}]},{"ibge":"3505609","nome":"Barrinha","populacao":33181,"eleitores":23861,"colocacao":235,"votos":41,"pctVotos":0.0031,"lat":-21.1864,"lon":-48.1636,"emendas":[],"indicacoes":[]},{"ibge":"3505708","nome":"Barueri","populacao":330339,"eleitores":297616,"colocacao":31,"votos":468,"pctVotos":0.0024,"lat":-23.5057,"lon":-46.879,"emendas":[],"indicacoes":[]},{"ibge":"3505807","nome":"Bastos","populacao":21900,"eleitores":17568,"colocacao":253,"votos":34,"pctVotos":0.0029,"lat":-21.921,"lon":-50.7357,"emendas":[],"indicacoes":[]},{"ibge":"3505906","nome":"Batatais","populacao":59873,"eleitores":42018,"colocacao":112,"votos":133,"pctVotos":0.0046,"lat":-20.8929,"lon":-47.5921,"emendas":[],"indicacoes":[]},{"ibge":"3506003","nome":"Bauru","populacao":391740,"eleitores":282186,"colocacao":27,"votos":513,"pctVotos":0.0028,"lat":-22.3246,"lon":-49.0871,"emendas":[],"indicacoes":[{"id":10,"segmento":"Educação","objeto":"Aquisição de equipamentos de informática (Chromebooks e notebooks)","valorEstimado":null,"status":"Demanda em articulação - sem valor definido","categoria":"Equipamentos de Informática (Chromebooks/Notebooks)","escola":"EE Antônio Guedes de Azevedo Prof.","prefeito":null,"vereador":null,"validacao":"Não localizado","fonteValidacao":"Painéis Power BI oficiais - Emendas Impositivas 2024/2025/2026 e Emendas Voluntárias 2023/2024/2025/2026 (governo.sp.gov.br/sec_governo_relacoes/painel), filtrados por Parlamentar = Paulo Mansur, consultados em 12/07/2026.","observacaoValidacao":"Item ainda não localizado como emenda parlamentar formalizada em nenhum dos 7 painéis oficiais de emendas de Paulo Mansur. Trata-se de demanda em fase de articulação política, sem código de emenda/indicação vinculado nos dados abertos do governo até o momento da consulta.","observacoes":null,"fonteArquivo":"Demandas Educação 2025.xlsx"}]},{"ibge":"3506102","nome":"Bebedouro","populacao":78210,"eleitores":57453,"colocacao":153,"votos":93,"pctVotos":0.0023,"lat":-20.9491,"lon":-48.4791,"emendas":[],"indicacoes":[]},{"ibge":"3506201","nome":"Bento de Abreu","populacao":2642,"eleitores":2179,"colocacao":615,"votos":1,"pctVotos":0.0006,"lat":-21.2686,"lon":-50.814,"emendas":[],"indicacoes":[]},{"ibge":"3506300","nome":"Bernardino de Campos","populacao":11852,"eleitores":7746,"colocacao":332,"votos":21,"pctVotos":0.0038,"lat":-23.0164,"lon":-49.4679,"emendas":[],"indicacoes":[]},{"ibge":"3506359","nome":"Bertioga","populacao":66873,"eleitores":53043,"colocacao":79,"votos":214,"pctVotos":0.0067,"lat":-23.8486,"lon":-46.1396,"emendas":[],"indicacoes":[]},{"ibge":"3506409","nome":"Bilac","populacao":7455,"eleitores":6461,"colocacao":419,"votos":11,"pctVotos":0.0025,"lat":-21.404,"lon":-50.4746,"emendas":[],"indicacoes":[]},{"ibge":"3506508","nome":"Birigui","populacao":122988,"eleitores":84842,"colocacao":98,"votos":161,"pctVotos":0.0028,"lat":-21.291,"lon":-50.3432,"emendas":[],"indicacoes":[]},{"ibge":"3506607","nome":"Biritiba Mirim","populacao":30526,"eleitores":24884,"colocacao":291,"votos":27,"pctVotos":0.0016,"lat":-23.5698,"lon":-46.0407,"emendas":[],"indicacoes":[]},{"ibge":"3506706","nome":"Boa Esperança do Sul","populacao":13135,"eleitores":9846,"colocacao":251,"votos":35,"pctVotos":0.005,"lat":-21.9918,"lon":-48.3906,"emendas":[{"id":50,"segmento":"Saúde","objeto":"Custeio","valor":500000,"status":null,"ano":2026,"tipo":"Voluntária","lote":"Voluntárias - Abril/2026","secretaria":"Saúde","beneficiario":"Boa Esperança do Sul","codigoEmenda":null,"numeroIndicacao":"7394/26","cancelada":"Não","validacao":"Confirmado","fonteValidacao":"Painel Power BI - Transferências Voluntárias 2026 - Dep. Estaduais (governo.sp.gov.br/sec_governo_relacoes/painel/voluntarias_estaduais_2026)","observacaoValidacao":"Confirmado individualmente no painel oficial (código, valor, cidade, indicação). Total R$ 10.000.000 confere exatamente com os 6 registros do lote de Abril/2026.","observacoes":null}],"indicacoes":[]},{"ibge":"3506805","nome":"Bocaina","populacao":11467,"eleitores":8659,"colocacao":189,"votos":67,"pctVotos":0.0112,"lat":-22.1365,"lon":-48.523,"emendas":[],"indicacoes":[]},{"ibge":"3506904","nome":"Bofete","populacao":10688,"eleitores":8900,"colocacao":230,"votos":43,"pctVotos":0.008,"lat":-23.1055,"lon":-48.2582,"emendas":[],"indicacoes":[]},{"ibge":"3507001","nome":"Boituva","populacao":63415,"eleitores":46092,"colocacao":75,"votos":218,"pctVotos":0.0073,"lat":-23.2855,"lon":-47.6786,"emendas":[],"indicacoes":[]},{"ibge":"3507100","nome":"Bom Jesus dos Perdões","populacao":22501,"eleitores":18215,"colocacao":202,"votos":59,"pctVotos":0.0049,"lat":-23.1356,"lon":-46.4675,"emendas":[],"indicacoes":[]},{"ibge":"3507159","nome":"Bom Sucesso de Itararé","populacao":3610,"eleitores":3396,"colocacao":614,"votos":1,"pctVotos":0.0004,"lat":-24.3155,"lon":-49.1451,"emendas":[],"indicacoes":[]},{"ibge":"3507209","nome":"Borá","populacao":928,"eleitores":1094,"colocacao":616,"votos":1,"pctVotos":0.0013,"lat":-22.2696,"lon":-50.5409,"emendas":[],"indicacoes":[]},{"ibge":"3507308","nome":"Boracéia","populacao":4823,"eleitores":3915,"colocacao":502,"votos":7,"pctVotos":0.0025,"lat":-22.1926,"lon":-48.7808,"emendas":[],"indicacoes":[]},{"ibge":"3507407","nome":"Borborema","populacao":14415,"eleitores":10848,"colocacao":204,"votos":58,"pctVotos":0.0076,"lat":-21.6214,"lon":-49.0741,"emendas":[],"indicacoes":[]},{"ibge":"3507456","nome":"Borebi","populacao":2787,"eleitores":2386,"colocacao":587,"votos":2,"pctVotos":0.0013,"lat":-22.5728,"lon":-48.9707,"emendas":[],"indicacoes":[]},{"ibge":"3507506","nome":"Botucatu","populacao":150442,"eleitores":110340,"colocacao":100,"votos":157,"pctVotos":0.0021,"lat":-22.8837,"lon":-48.4437,"emendas":[],"indicacoes":[]},{"ibge":"3507605","nome":"Bragança Paulista","populacao":184634,"eleitores":129301,"colocacao":72,"votos":228,"pctVotos":0.0025,"lat":-22.9527,"lon":-46.5419,"emendas":[],"indicacoes":[]},{"ibge":"3507704","nome":"Braúna","populacao":5466,"eleitores":4231,"colocacao":577,"votos":3,"pctVotos":0.001,"lat":-21.499,"lon":-50.3175,"emendas":[],"indicacoes":[]},{"ibge":"3507753","nome":"Brejo Alegre","populacao":2605,"eleitores":3031,"colocacao":424,"votos":10,"pctVotos":0.0056,"lat":-21.1651,"lon":-50.1861,"emendas":[],"indicacoes":[]},{"ibge":"3507803","nome":"Brodowski","populacao":26167,"eleitores":17218,"colocacao":188,"votos":67,"pctVotos":0.0054,"lat":-20.9845,"lon":-47.6572,"emendas":[],"indicacoes":[]},{"ibge":"3507902","nome":"Brotas","populacao":24423,"eleitores":17933,"colocacao":201,"votos":59,"pctVotos":0.005,"lat":-22.2795,"lon":-48.1251,"emendas":[],"indicacoes":[]},{"ibge":"3508009","nome":"Buri","populacao":20674,"eleitores":15232,"colocacao":266,"votos":32,"pctVotos":0.003,"lat":-23.7977,"lon":-48.5958,"emendas":[],"indicacoes":[]},{"ibge":"3508108","nome":"Buritama","populacao":17597,"eleitores":13167,"colocacao":362,"votos":17,"pctVotos":0.0019,"lat":-21.0661,"lon":-50.1475,"emendas":[{"id":44,"segmento":"Saúde","objeto":"Custeio","valor":1000000,"status":null,"ano":2026,"tipo":"Voluntária","lote":"Voluntárias - 2026","secretaria":"Saúde","beneficiario":"Buritama","codigoEmenda":null,"numeroIndicacao":"1017/26","cancelada":"Não","validacao":"Não localizado","fonteValidacao":"Painel Power BI - Transferências Voluntárias 2026 - Dep. Estaduais (governo.sp.gov.br/sec_governo_relacoes/painel/voluntarias_estaduais_2026)","observacaoValidacao":"Esta emenda NÃO foi localizada no painel oficial (consultado em 03/07/2026), que mostra apenas 6 registros de Paulo Mansur para 2026 (todos do lote de Abril, R$ 10.000.000). O município de Mirandópolis não consta em nenhum registro do painel para nenhum deputado, e o município de Buritama não tem nenhum registro de Paulo Mansur. Recomenda-se fortemente confirmar com o gabinete se estas 4 indicações (CBAMC, Santa Casa de Casa Branca, Mirandópolis, Buritama - R$ 11.000.000) foram de fato protocoladas/aprovadas, pois podem ter sido substituídas pelo lote de Abril ou ainda não processadas.","observacoes":null}],"indicacoes":[]},{"ibge":"3508207","nome":"Buritizal","populacao":4447,"eleitores":4099,"colocacao":501,"votos":7,"pctVotos":0.0025,"lat":-20.1911,"lon":-47.7096,"emendas":[],"indicacoes":[]},{"ibge":"3508306","nome":"Cabrália Paulista","populacao":4362,"eleitores":3821,"colocacao":455,"votos":8,"pctVotos":0.0034,"lat":-22.4576,"lon":-49.3393,"emendas":[],"indicacoes":[]},{"ibge":"3508405","nome":"Cabreúva","populacao":48473,"eleitores":36598,"colocacao":111,"votos":133,"pctVotos":0.0057,"lat":-23.3053,"lon":-47.1362,"emendas":[],"indicacoes":[]},{"ibge":"3508504","nome":"Caçapava","populacao":99678,"eleitores":72063,"colocacao":211,"votos":55,"pctVotos":0.0011,"lat":-23.0992,"lon":-45.7076,"emendas":[],"indicacoes":[]},{"ibge":"3508603","nome":"Cachoeira Paulista","populacao":32482,"eleitores":24008,"colocacao":183,"votos":71,"pctVotos":0.0042,"lat":-22.6665,"lon":-45.0154,"emendas":[],"indicacoes":[]},{"ibge":"3508702","nome":"Caconde","populacao":17266,"eleitores":13379,"colocacao":273,"votos":30,"pctVotos":0.0032,"lat":-21.528,"lon":-46.6437,"emendas":[],"indicacoes":[]},{"ibge":"3508801","nome":"Cafelândia","populacao":16905,"eleitores":12394,"colocacao":250,"votos":35,"pctVotos":0.004,"lat":-21.8031,"lon":-49.6092,"emendas":[],"indicacoes":[]},{"ibge":"3508900","nome":"Caiabu","populacao":3745,"eleitores":3410,"colocacao":0,"votos":0,"pctVotos":0,"lat":-22.0127,"lon":-51.2394,"emendas":[],"indicacoes":[]},{"ibge":"3509007","nome":"Caieiras","populacao":98257,"eleitores":72555,"colocacao":96,"votos":163,"pctVotos":0.0034,"lat":-23.3607,"lon":-46.7397,"emendas":[],"indicacoes":[]},{"ibge":"3509106","nome":"Caiuá","populacao":5585,"eleitores":3925,"colocacao":532,"votos":5,"pctVotos":0.0018,"lat":-21.8322,"lon":-51.9969,"emendas":[],"indicacoes":[]},{"ibge":"3509205","nome":"Cajamar","populacao":97363,"eleitores":68051,"colocacao":92,"votos":176,"pctVotos":0.0039,"lat":-23.355,"lon":-46.8781,"emendas":[],"indicacoes":[]},{"ibge":"3509254","nome":"Cajati","populacao":29257,"eleitores":22358,"colocacao":95,"votos":163,"pctVotos":0.0107,"lat":-24.7324,"lon":-48.1223,"emendas":[],"indicacoes":[]},{"ibge":"3509304","nome":"Cajobi","populacao":9232,"eleitores":7449,"colocacao":367,"votos":16,"pctVotos":0.003,"lat":-20.8773,"lon":-48.8063,"emendas":[],"indicacoes":[]},{"ibge":"3509403","nome":"Cajuru","populacao":24217,"eleitores":18277,"colocacao":246,"votos":36,"pctVotos":0.0028,"lat":-21.2749,"lon":-47.303,"emendas":[{"id":31,"segmento":"Saúde","objeto":"Custeio","valor":100000,"status":"Em processamento/ Sem empenho","ano":2025,"tipo":"Voluntária","lote":"Voluntárias - 2025","secretaria":"Saúde","beneficiario":"Santa Casa de Cajuru","codigoEmenda":null,"numeroIndicacao":"16519/25","cancelada":"Não","validacao":"Confirmado","fonteValidacao":"Painel Power BI - Transferências Voluntárias 2025 - Dep. Estaduais (governo.sp.gov.br/sec_governo_relacoes/painel/voluntarias_estaduais_2025)","observacaoValidacao":"Confirmado individualmente no painel oficial (código, valor, cidade, indicação, status). Total R$ 20.000.000 confere exatamente com os 10 registros.","observacoes":null}],"indicacoes":[]},{"ibge":"3509452","nome":"Campina do Monte Alegre","populacao":6077,"eleitores":4899,"colocacao":385,"votos":15,"pctVotos":0.0042,"lat":-23.5895,"lon":-48.4758,"emendas":[],"indicacoes":[]},{"ibge":"3509502","nome":"Campinas","populacao":1185977,"eleitores":884726,"colocacao":2,"votos":7168,"pctVotos":0.0121,"lat":-22.9053,"lon":-47.0659,"emendas":[{"id":5,"segmento":"Assistência Social","objeto":"Custeio","valor":100000,"status":"OK","ano":2024,"tipo":"Impositiva","lote":"Impositivas - 2024","secretaria":"Social","beneficiario":"Instituto Semear - Campinas","codigoEmenda":"2024.261.60378","numeroIndicacao":null,"cancelada":"Não","validacao":"Confirmado","fonteValidacao":"Painel Power BI - LOA 2026 Emendas Impositivas / LOA 2024 Emendas Impositivas (governo.sp.gov.br/sec_governo_relacoes/painel/impositivas2024)","observacaoValidacao":"Confirmado a nível de código de emenda: valor, código, beneficiário e município batem exatamente com o registro oficial de execução. Total de R$ 10.976.120 confere. (Nota: a divergência apontada anteriormente com base no PDF resumido da ALESP foi resolvida - o painel granular não mostra nenhuma emenda de Educação para Paulo Mansur em 2024; a leitura anterior era de um documento menos detalhado.)","observacoes":null},{"id":8,"segmento":"Governo / Transferência Especial","objeto":"Instalação de Ponto de Onibus","valor":200000,"status":"OK","ano":2024,"tipo":"Impositiva","lote":"Impositivas - 2024","secretaria":"Governo (Transf. Especial)","beneficiario":"Prefeitura Campinas","codigoEmenda":"2024.261.60406","numeroIndicacao":null,"cancelada":"Não","validacao":"Confirmado","fonteValidacao":"Painel Power BI - LOA 2026 Emendas Impositivas / LOA 2024 Emendas Impositivas (governo.sp.gov.br/sec_governo_relacoes/painel/impositivas2024)","observacaoValidacao":"Confirmado a nível de código de emenda: valor, código, beneficiário e município batem exatamente com o registro oficial de execução. Total de R$ 10.976.120 confere. (Nota: a divergência apontada anteriormente com base no PDF resumido da ALESP foi resolvida - o painel granular não mostra nenhuma emenda de Educação para Paulo Mansur em 2024; a leitura anterior era de um documento menos detalhado.)","observacoes":null},{"id":26,"segmento":"Saúde","objeto":"Saúde","valor":2000000,"status":"OK","ano":2024,"tipo":"Voluntária","lote":"Voluntárias - 2024","secretaria":"Saúde","beneficiario":"Campinas","codigoEmenda":null,"numeroIndicacao":"4097/2024","cancelada":"Não","validacao":"Confirmado","fonteValidacao":"Painel Power BI - Transferências Voluntárias 2024 - Dep. Estaduais (governo.sp.gov.br/sec_governo_relacoes/painel/voluntarias_estaduais_2024)","observacaoValidacao":"Confirmado individualmente no painel oficial (código, valor, cidade, indicação, status). Total R$ 20.000.000 confere exatamente com os 7 registros.","observacoes":null},{"id":32,"segmento":"Educação","objeto":"Aquisição de uniformes escolares","valor":10000000,"status":"Em processamento/ Sem empenho","ano":2025,"tipo":"Voluntária","lote":"Voluntárias - 2025","secretaria":"Educação","beneficiario":"Campinas","codigoEmenda":null,"numeroIndicacao":"822/25","cancelada":"Não","validacao":"Confirmado","fonteValidacao":"Painel Power BI - Transferências Voluntárias 2025 - Dep. Estaduais (governo.sp.gov.br/sec_governo_relacoes/painel/voluntarias_estaduais_2025)","observacaoValidacao":"Confirmado individualmente no painel oficial (código, valor, cidade, indicação, status). Total R$ 20.000.000 confere exatamente com os 10 registros.","observacoes":null}],"indicacoes":[{"id":21,"segmento":"Educação","objeto":"Climatização de escola estadual (ar-condicionado)","valorEstimado":null,"status":"Demanda em articulação - sem valor definido","categoria":"Climatização (Ar-condicionado)","escola":"EE Barão Geraldo de Rezende","prefeito":"Dário Saadi","vereador":"Bene Lima","validacao":"Não localizado","fonteValidacao":"Painéis Power BI oficiais - Emendas Impositivas 2024/2025/2026 e Emendas Voluntárias 2023/2024/2025/2026 (governo.sp.gov.br/sec_governo_relacoes/painel), filtrados por Parlamentar = Paulo Mansur, consultados em 12/07/2026.","observacaoValidacao":"Item ainda não localizado como emenda parlamentar formalizada em nenhum dos 7 painéis oficiais de emendas de Paulo Mansur. Trata-se de demanda em fase de articulação política, sem código de emenda/indicação vinculado nos dados abertos do governo até o momento da consulta.","observacoes":null,"fonteArquivo":"Demandas Educação 2025.xlsx + CONSTRUÇÃO DE QUADRAS ESPORTIVAS e CLIMATIZAÇÃO.docx"},{"id":26,"segmento":"Educação","objeto":"Construção de quadra poliesportiva escolar","valorEstimado":562595.05,"status":"Valor definido - aguardando confirmação de código de emenda","categoria":"Construção de Quadra Poliesportiva","escola":"EE Francisco Barreto Leme","prefeito":"Dário Saadi","vereador":"Bene Lima","validacao":"Não localizado","fonteValidacao":"Painéis Power BI oficiais - Emendas Impositivas 2024/2025/2026 e Emendas Voluntárias 2023/2024/2025/2026 (governo.sp.gov.br/sec_governo_relacoes/painel), filtrados por Parlamentar = Paulo Mansur, consultados em 12/07/2026.","observacaoValidacao":"Item com valor definido mas ainda não localizado como emenda formalizada em nenhum painel oficial. Pode estar em fase de protocolo/análise ou ser executado via outra via orçamentária (ex.: FDE/SEDUC), fora do mecanismo de emenda parlamentar individual. Recomenda-se confirmar com o gabinete o número de indicação, se já protocolada.","observacoes":null,"fonteArquivo":"Demandas Educação 2025.xlsx + CONSTRUÇÃO DE QUADRAS ESPORTIVAS e CLIMATIZAÇÃO.docx"},{"id":27,"segmento":"Educação","objeto":"Construção de quadra poliesportiva escolar","valorEstimado":1436174.74,"status":"Valor definido - aguardando confirmação de código de emenda","categoria":"Construção de Quadra Poliesportiva","escola":"EE/ETEC Carlos Gomes/Bento Quirino","prefeito":"Dário Saadi","vereador":"Bene Lima","validacao":"Não localizado","fonteValidacao":"Painéis Power BI oficiais - Emendas Impositivas 2024/2025/2026 e Emendas Voluntárias 2023/2024/2025/2026 (governo.sp.gov.br/sec_governo_relacoes/painel), filtrados por Parlamentar = Paulo Mansur, consultados em 12/07/2026.","observacaoValidacao":"Item com valor definido mas ainda não localizado como emenda formalizada em nenhum painel oficial. Pode estar em fase de protocolo/análise ou ser executado via outra via orçamentária (ex.: FDE/SEDUC), fora do mecanismo de emenda parlamentar individual. Recomenda-se confirmar com o gabinete o número de indicação, se já protocolada.","observacoes":null,"fonteArquivo":"Demandas Educação 2025.xlsx + CONSTRUÇÃO DE QUADRAS ESPORTIVAS e CLIMATIZAÇÃO.docx"}]},{"ibge":"3509601","nome":"Campo Limpo Paulista","populacao":79663,"eleitores":58951,"colocacao":103,"votos":145,"pctVotos":0.0036,"lat":-23.2078,"lon":-46.7889,"emendas":[],"indicacoes":[]},{"ibge":"3509700","nome":"Campos do Jordão","populacao":47983,"eleitores":37995,"colocacao":101,"votos":151,"pctVotos":0.0065,"lat":-22.7296,"lon":-45.5833,"emendas":[],"indicacoes":[]},{"ibge":"3509809","nome":"Campos Novos Paulista","populacao":4991,"eleitores":3909,"colocacao":576,"votos":3,"pctVotos":0.0011,"lat":-22.602,"lon":-49.9987,"emendas":[],"indicacoes":[]},{"ibge":"3509908","nome":"Cananéia","populacao":12489,"eleitores":10551,"colocacao":352,"votos":18,"pctVotos":0.0026,"lat":-25.0144,"lon":-47.9341,"emendas":[],"indicacoes":[]},{"ibge":"3509957","nome":"Canas","populacao":5049,"eleitores":3991,"colocacao":451,"votos":9,"pctVotos":0.0032,"lat":-22.7003,"lon":-45.0521,"emendas":[],"indicacoes":[]},{"ibge":"3510005","nome":"Cândido Mota","populacao":30172,"eleitores":23187,"colocacao":151,"votos":93,"pctVotos":0.0058,"lat":-22.7471,"lon":-50.3873,"emendas":[],"indicacoes":[]},{"ibge":"3510104","nome":"Cândido Rodrigues","populacao":2951,"eleitores":2917,"colocacao":454,"votos":9,"pctVotos":0.0052,"lat":-21.3275,"lon":-48.6327,"emendas":[],"indicacoes":[]},{"ibge":"3510153","nome":"Canitar","populacao":6524,"eleitores":4402,"colocacao":0,"votos":0,"pctVotos":0,"lat":-23.004,"lon":-49.7839,"emendas":[],"indicacoes":[]},{"ibge":"3510203","nome":"Capão Bonito","populacao":47403,"eleitores":34195,"colocacao":168,"votos":81,"pctVotos":0.0034,"lat":-24.0113,"lon":-48.3482,"emendas":[{"id":33,"segmento":"Saúde","objeto":"Custeio","valor":250000,"status":"OK","ano":2025,"tipo":"Voluntária","lote":"Voluntárias - 2025","secretaria":"Saúde","beneficiario":"Capão Bonito","codigoEmenda":null,"numeroIndicacao":"17060/25","cancelada":"Não","validacao":"Confirmado","fonteValidacao":"Painel Power BI - Transferências Voluntárias 2025 - Dep. Estaduais (governo.sp.gov.br/sec_governo_relacoes/painel/voluntarias_estaduais_2025)","observacaoValidacao":"Confirmado individualmente no painel oficial (código, valor, cidade, indicação, status). Total R$ 20.000.000 confere exatamente com os 10 registros.","observacoes":null}],"indicacoes":[]},{"ibge":"3510302","nome":"Capela do Alto","populacao":23597,"eleitores":14485,"colocacao":265,"votos":32,"pctVotos":0.0032,"lat":-23.4685,"lon":-47.7388,"emendas":[{"id":27,"segmento":"Saúde","objeto":"Saúde","valor":3000000,"status":"OK","ano":2024,"tipo":"Voluntária","lote":"Voluntárias - 2024","secretaria":"Saúde","beneficiario":"Capela do Alto","codigoEmenda":null,"numeroIndicacao":"7249/2024","cancelada":"Não","validacao":"Confirmado","fonteValidacao":"Painel Power BI - Transferências Voluntárias 2024 - Dep. Estaduais (governo.sp.gov.br/sec_governo_relacoes/painel/voluntarias_estaduais_2024)","observacaoValidacao":"Confirmado individualmente no painel oficial (código, valor, cidade, indicação, status). Total R$ 20.000.000 confere exatamente com os 7 registros.","observacoes":null}],"indicacoes":[]},{"ibge":"3510401","nome":"Capivari","populacao":51318,"eleitores":37287,"colocacao":121,"votos":124,"pctVotos":0.0047,"lat":-22.9951,"lon":-47.5071,"emendas":[{"id":19,"segmento":"Saúde","objeto":"Custeio","valor":1500000,"status":"OK","ano":2023,"tipo":"Voluntária","lote":"Voluntárias - 2023","secretaria":"Saúde","beneficiario":"Capivari","codigoEmenda":null,"numeroIndicacao":"3058/25","cancelada":"Não","validacao":"Confirmado","fonteValidacao":"Painel Power BI - Transferências Voluntárias 2023 - Dep. Estaduais (governo.sp.gov.br/sec_governo_relacoes/painel/voluntarias_estaduais_2023)","observacaoValidacao":"Confirmado individualmente no painel oficial (código, valor, cidade, indicação). Total R$ 11.000.000 confere exatamente - validando as correções de valor aplicadas (R$ 1.500.000 para Araçoiaba da Serra e Capivari; R$ 4.000.000 para Santa Casa de Santos).","observacoes":"Valor original digitado como texto ('R$ 1.500,000,00'); corrigido para R$ 1.500.000,00 com base na conferência do total declarado na planilha original."}],"indicacoes":[]},{"ibge":"3510500","nome":"Caraguatatuba","populacao":141084,"eleitores":103619,"colocacao":58,"votos":256,"pctVotos":0.0036,"lat":-23.6125,"lon":-45.4125,"emendas":[],"indicacoes":[]},{"ibge":"3510609","nome":"Carapicuíba","populacao":398462,"eleitores":300058,"colocacao":30,"votos":471,"pctVotos":0.0024,"lat":-23.5235,"lon":-46.8407,"emendas":[],"indicacoes":[]},{"ibge":"3510708","nome":"Cardoso","populacao":11491,"eleitores":9837,"colocacao":421,"votos":10,"pctVotos":0.0016,"lat":-20.08,"lon":-49.9183,"emendas":[],"indicacoes":[]},{"ibge":"3510807","nome":"Casa Branca","populacao":28786,"eleitores":19545,"colocacao":192,"votos":64,"pctVotos":0.005,"lat":-21.7708,"lon":-47.0852,"emendas":[{"id":28,"segmento":"Saúde","objeto":"Saúde","valor":3000000,"status":"OK","ano":2024,"tipo":"Voluntária","lote":"Voluntárias - 2024","secretaria":"Saúde","beneficiario":"Casa Branca","codigoEmenda":null,"numeroIndicacao":"6422/2024","cancelada":"Não","validacao":"Confirmado","fonteValidacao":"Painel Power BI - Transferências Voluntárias 2024 - Dep. Estaduais (governo.sp.gov.br/sec_governo_relacoes/painel/voluntarias_estaduais_2024)","observacaoValidacao":"Confirmado individualmente no painel oficial (código, valor, cidade, indicação, status). Total R$ 20.000.000 confere exatamente com os 7 registros.","observacoes":null},{"id":34,"segmento":"Saúde","objeto":"Custeio","valor":2000000,"status":"OK","ano":2025,"tipo":"Voluntária","lote":"Voluntárias - 2025","secretaria":"Saúde","beneficiario":"Casa Branca","codigoEmenda":null,"numeroIndicacao":"17057/25","cancelada":"Não","validacao":"Confirmado","fonteValidacao":"Painel Power BI - Transferências Voluntárias 2025 - Dep. Estaduais (governo.sp.gov.br/sec_governo_relacoes/painel/voluntarias_estaduais_2025)","observacaoValidacao":"Confirmado individualmente no painel oficial (código, valor, cidade, indicação, status). Total R$ 20.000.000 confere exatamente com os 10 registros.","observacoes":null},{"id":42,"segmento":"Saúde","objeto":"Custeio","valor":5000000,"status":null,"ano":2026,"tipo":"Voluntária","lote":"Voluntárias - 2026","secretaria":"Saúde","beneficiario":"Santa Casa de Casa Branca","codigoEmenda":null,"numeroIndicacao":"29598/25","cancelada":"Não","validacao":"Não localizado","fonteValidacao":"Painel Power BI - Transferências Voluntárias 2026 - Dep. Estaduais (governo.sp.gov.br/sec_governo_relacoes/painel/voluntarias_estaduais_2026)","observacaoValidacao":"Esta emenda NÃO foi localizada no painel oficial (consultado em 03/07/2026), que mostra apenas 6 registros de Paulo Mansur para 2026 (todos do lote de Abril, R$ 10.000.000). O município de Mirandópolis não consta em nenhum registro do painel para nenhum deputado, e o município de Buritama não tem nenhum registro de Paulo Mansur. Recomenda-se fortemente confirmar com o gabinete se estas 4 indicações (CBAMC, Santa Casa de Casa Branca, Mirandópolis, Buritama - R$ 11.000.000) foram de fato protocoladas/aprovadas, pois podem ter sido substituídas pelo lote de Abril ou ainda não processadas.","observacoes":null}],"indicacoes":[]},{"ibge":"3510906","nome":"Cássia dos Coqueiros","populacao":2855,"eleitores":2743,"colocacao":456,"votos":8,"pctVotos":0.0046,"lat":-21.2801,"lon":-47.1643,"emendas":[],"indicacoes":[]},{"ibge":"3511003","nome":"Castilho","populacao":20418,"eleitores":15618,"colocacao":208,"votos":57,"pctVotos":0.0055,"lat":-20.8689,"lon":-51.4884,"emendas":[],"indicacoes":[]},{"ibge":"3511102","nome":"Catanduva","populacao":119172,"eleitores":88630,"colocacao":62,"votos":253,"pctVotos":0.0042,"lat":-21.1314,"lon":-48.977,"emendas":[],"indicacoes":[{"id":22,"segmento":"Educação","objeto":"Climatização de escola estadual (ar-condicionado)","valorEstimado":null,"status":"Demanda em articulação - sem valor definido","categoria":"Climatização (Ar-condicionado)","escola":"EE Paulo de Lima Correa","prefeito":null,"vereador":null,"validacao":"Não localizado","fonteValidacao":"Painéis Power BI oficiais - Emendas Impositivas 2024/2025/2026 e Emendas Voluntárias 2023/2024/2025/2026 (governo.sp.gov.br/sec_governo_relacoes/painel), filtrados por Parlamentar = Paulo Mansur, consultados em 12/07/2026.","observacaoValidacao":"Item ainda não localizado como emenda parlamentar formalizada em nenhum dos 7 painéis oficiais de emendas de Paulo Mansur. Trata-se de demanda em fase de articulação política, sem código de emenda/indicação vinculado nos dados abertos do governo até o momento da consulta.","observacoes":null,"fonteArquivo":"Demandas Educação 2025.xlsx + CONSTRUÇÃO DE QUADRAS ESPORTIVAS e CLIMATIZAÇÃO.docx"}]},{"ibge":"3511201","nome":"Catiguá","populacao":7105,"eleitores":5796,"colocacao":364,"votos":17,"pctVotos":0.0043,"lat":-21.0519,"lon":-49.0616,"emendas":[],"indicacoes":[]},{"ibge":"3511300","nome":"Cedral","populacao":13160,"eleitores":8357,"colocacao":398,"votos":13,"pctVotos":0.0024,"lat":-20.9009,"lon":-49.2664,"emendas":[],"indicacoes":[{"id":4,"segmento":"Educação","objeto":"Aquisição de ônibus escolar","valorEstimado":null,"status":"Demanda em articulação - sem valor definido","categoria":"Ônibus Escolar","escola":null,"prefeito":null,"vereador":null,"validacao":"Não localizado","fonteValidacao":"Painéis Power BI oficiais - Emendas Impositivas 2024/2025/2026 e Emendas Voluntárias 2023/2024/2025/2026 (governo.sp.gov.br/sec_governo_relacoes/painel), filtrados por Parlamentar = Paulo Mansur, consultados em 12/07/2026.","observacaoValidacao":"Item ainda não localizado como emenda parlamentar formalizada em nenhum dos 7 painéis oficiais de emendas de Paulo Mansur. Trata-se de demanda em fase de articulação política, sem código de emenda/indicação vinculado nos dados abertos do governo até o momento da consulta.","observacoes":null,"fonteArquivo":"Demandas Educação 2025.xlsx + VEÍCULOS E MÁQUINAS - PAULO MANSUR.docx"}]},{"ibge":"3511409","nome":"Cerqueira César","populacao":22076,"eleitores":15236,"colocacao":226,"votos":45,"pctVotos":0.0046,"lat":-23.038,"lon":-49.1655,"emendas":[],"indicacoes":[]},{"ibge":"3511508","nome":"Cerquilho","populacao":46217,"eleitores":35863,"colocacao":108,"votos":140,"pctVotos":0.0059,"lat":-23.1665,"lon":-47.7459,"emendas":[],"indicacoes":[]},{"ibge":"3511607","nome":"Cesário Lange","populacao":19588,"eleitores":13984,"colocacao":217,"votos":53,"pctVotos":0.0061,"lat":-23.226,"lon":-47.9545,"emendas":[],"indicacoes":[]},{"ibge":"3511706","nome":"Charqueada","populacao":15798,"eleitores":13618,"colocacao":366,"votos":16,"pctVotos":0.0017,"lat":-22.5096,"lon":-47.7755,"emendas":[],"indicacoes":[]},{"ibge":"3557204","nome":"Chavantes","populacao":12411,"eleitores":8808,"colocacao":503,"votos":6,"pctVotos":0.0009,"lat":-23.0366,"lon":-49.7096,"emendas":[],"indicacoes":[]},{"ibge":"3511904","nome":"Clementina","populacao":7087,"eleitores":5254,"colocacao":453,"votos":9,"pctVotos":0.0023,"lat":-21.5604,"lon":-50.4525,"emendas":[],"indicacoes":[]},{"ibge":"3512001","nome":"Colina","populacao":18842,"eleitores":14029,"colocacao":274,"votos":30,"pctVotos":0.0031,"lat":-20.7114,"lon":-48.5387,"emendas":[],"indicacoes":[]},{"ibge":"3512100","nome":"Colômbia","populacao":6781,"eleitores":5924,"colocacao":500,"votos":7,"pctVotos":0.0018,"lat":-20.1768,"lon":-48.6865,"emendas":[],"indicacoes":[]},{"ibge":"3512209","nome":"Conchal","populacao":29034,"eleitores":21094,"colocacao":152,"votos":93,"pctVotos":0.0062,"lat":-22.3375,"lon":-47.1729,"emendas":[],"indicacoes":[]},{"ibge":"3512308","nome":"Conchas","populacao":15381,"eleitores":12901,"colocacao":156,"votos":91,"pctVotos":0.0107,"lat":-23.0154,"lon":-48.0134,"emendas":[],"indicacoes":[]},{"ibge":"3512407","nome":"Cordeirópolis","populacao":25130,"eleitores":19593,"colocacao":159,"votos":88,"pctVotos":0.0066,"lat":-22.4778,"lon":-47.4519,"emendas":[],"indicacoes":[]},{"ibge":"3512506","nome":"Coroados","populacao":5498,"eleitores":4023,"colocacao":420,"votos":11,"pctVotos":0.0037,"lat":-21.3521,"lon":-50.2859,"emendas":[],"indicacoes":[]},{"ibge":"3512605","nome":"Coronel Macedo","populacao":4295,"eleitores":3964,"colocacao":540,"votos":4,"pctVotos":0.0014,"lat":-23.6261,"lon":-49.31,"emendas":[],"indicacoes":[]},{"ibge":"3512704","nome":"Corumbataí","populacao":4285,"eleitores":3634,"colocacao":457,"votos":8,"pctVotos":0.0033,"lat":-22.2213,"lon":-47.6215,"emendas":[],"indicacoes":[]},{"ibge":"3512803","nome":"Cosmópolis","populacao":61204,"eleitores":44137,"colocacao":71,"votos":231,"pctVotos":0.008,"lat":-22.6419,"lon":-47.1926,"emendas":[],"indicacoes":[]},{"ibge":"3512902","nome":"Cosmorama","populacao":8968,"eleitores":7091,"colocacao":350,"votos":19,"pctVotos":0.0037,"lat":-20.4755,"lon":-49.7827,"emendas":[],"indicacoes":[]},{"ibge":"3513009","nome":"Cotia","populacao":287004,"eleitores":192026,"colocacao":45,"votos":319,"pctVotos":0.0025,"lat":-23.6022,"lon":-46.919,"emendas":[],"indicacoes":[]},{"ibge":"3513108","nome":"Cravinhos","populacao":34252,"eleitores":28067,"colocacao":301,"votos":25,"pctVotos":0.0013,"lat":-21.338,"lon":-47.7324,"emendas":[],"indicacoes":[]},{"ibge":"3513207","nome":"Cristais Paulista","populacao":9543,"eleitores":7575,"colocacao":363,"votos":17,"pctVotos":0.0033,"lat":-20.4036,"lon":-47.4209,"emendas":[],"indicacoes":[]},{"ibge":"3513306","nome":"Cruzália","populacao":2129,"eleitores":1997,"colocacao":499,"votos":7,"pctVotos":0.0045,"lat":-22.7373,"lon":-50.7909,"emendas":[],"indicacoes":[]},{"ibge":"3513405","nome":"Cruzeiro","populacao":76513,"eleitores":56366,"colocacao":110,"votos":135,"pctVotos":0.0036,"lat":-22.5728,"lon":-44.969,"emendas":[],"indicacoes":[]},{"ibge":"3513504","nome":"Cubatão","populacao":115082,"eleitores":90130,"colocacao":59,"votos":255,"pctVotos":0.0039,"lat":-23.8911,"lon":-46.424,"emendas":[],"indicacoes":[]},{"ibge":"3513603","nome":"Cunha","populacao":22456,"eleitores":18134,"colocacao":245,"votos":36,"pctVotos":0.0029,"lat":-23.0731,"lon":-44.9576,"emendas":[],"indicacoes":[]},{"ibge":"3513702","nome":"Descalvado","populacao":32622,"eleitores":25554,"colocacao":135,"votos":108,"pctVotos":0.0068,"lat":-21.9002,"lon":-47.6181,"emendas":[],"indicacoes":[]},{"ibge":"3513801","nome":"Diadema","populacao":404118,"eleitores":340373,"colocacao":22,"votos":635,"pctVotos":0.0028,"lat":-23.6813,"lon":-46.6205,"emendas":[],"indicacoes":[]},{"ibge":"3513850","nome":"Dirce Reis","populacao":1641,"eleitores":1715,"colocacao":569,"votos":3,"pctVotos":0.0025,"lat":-20.4642,"lon":-50.6073,"emendas":[],"indicacoes":[]},{"ibge":"3513900","nome":"Divinolândia","populacao":11314,"eleitores":9562,"colocacao":261,"votos":33,"pctVotos":0.0052,"lat":-21.6637,"lon":-46.7361,"emendas":[],"indicacoes":[]},{"ibge":"3514007","nome":"Dobrada","populacao":8958,"eleitores":6806,"colocacao":351,"votos":18,"pctVotos":0.0041,"lat":-21.5155,"lon":-48.3935,"emendas":[],"indicacoes":[]},{"ibge":"3514106","nome":"Dois Córregos","populacao":24855,"eleitores":18880,"colocacao":296,"votos":26,"pctVotos":0.0021,"lat":-22.3673,"lon":-48.3819,"emendas":[],"indicacoes":[]},{"ibge":"3514205","nome":"Dolcinópolis","populacao":2250,"eleitores":2426,"colocacao":620,"votos":1,"pctVotos":0.0006,"lat":-20.124,"lon":-50.5149,"emendas":[],"indicacoes":[]},{"ibge":"3514304","nome":"Dourado","populacao":8186,"eleitores":6905,"colocacao":318,"votos":23,"pctVotos":0.0055,"lat":-22.1044,"lon":-48.3178,"emendas":[],"indicacoes":[]},{"ibge":"3514403","nome":"Dracena","populacao":46664,"eleitores":33931,"colocacao":128,"votos":119,"pctVotos":0.0051,"lat":-21.4843,"lon":-51.535,"emendas":[],"indicacoes":[]},{"ibge":"3514502","nome":"Duartina","populacao":12529,"eleitores":9948,"colocacao":263,"votos":32,"pctVotos":0.0045,"lat":-22.4146,"lon":-49.4084,"emendas":[],"indicacoes":[]},{"ibge":"3514601","nome":"Dumont","populacao":9719,"eleitores":7504,"colocacao":262,"votos":33,"pctVotos":0.0067,"lat":-21.2324,"lon":-47.9756,"emendas":[],"indicacoes":[]},{"ibge":"3514700","nome":"Echaporã","populacao":6295,"eleitores":5117,"colocacao":621,"votos":1,"pctVotos":0.0003,"lat":-22.4326,"lon":-50.2038,"emendas":[],"indicacoes":[]},{"ibge":"3514809","nome":"Eldorado","populacao":13162,"eleitores":11003,"colocacao":319,"votos":23,"pctVotos":0.003,"lat":-24.5281,"lon":-48.1141,"emendas":[],"indicacoes":[]},{"ibge":"3514908","nome":"Elias Fausto","populacao":18103,"eleitores":13653,"colocacao":115,"votos":130,"pctVotos":0.0136,"lat":-23.0428,"lon":-47.3682,"emendas":[],"indicacoes":[]},{"ibge":"3514924","nome":"Elisiário","populacao":3189,"eleitores":2838,"colocacao":572,"votos":3,"pctVotos":0.0016,"lat":-21.1678,"lon":-49.1146,"emendas":[],"indicacoes":[]},{"ibge":"3514957","nome":"Embaúba","populacao":2353,"eleitores":2501,"colocacao":492,"votos":7,"pctVotos":0.004,"lat":-20.9796,"lon":-48.8325,"emendas":[],"indicacoes":[]},{"ibge":"3515004","nome":"Embu das Artes","populacao":259323,"eleitores":207256,"colocacao":46,"votos":318,"pctVotos":0.0023,"lat":-23.6437,"lon":-46.8579,"emendas":[],"indicacoes":[]},{"ibge":"3515103","nome":"Embu-guaçu","populacao":68805,"eleitores":54142,"colocacao":132,"votos":112,"pctVotos":0.0032,"lat":-23.8297,"lon":-46.8136,"emendas":[],"indicacoes":[]},{"ibge":"3515129","nome":"Emilianópolis","populacao":3062,"eleitores":2753,"colocacao":509,"votos":6,"pctVotos":0.0031,"lat":-21.8314,"lon":-51.4832,"emendas":[],"indicacoes":[]},{"ibge":"3515152","nome":"Engenheiro Coelho","populacao":20139,"eleitores":15028,"colocacao":236,"votos":40,"pctVotos":0.0039,"lat":-22.4836,"lon":-47.211,"emendas":[],"indicacoes":[]},{"ibge":"3515186","nome":"Espírito Santo do Pinhal","populacao":40681,"eleitores":31312,"colocacao":171,"votos":78,"pctVotos":0.0037,"lat":-22.1909,"lon":-46.7477,"emendas":[],"indicacoes":[]},{"ibge":"3515194","nome":"Espírito Santo do Turvo","populacao":4217,"eleitores":3649,"colocacao":612,"votos":1,"pctVotos":0.0004,"lat":-22.6925,"lon":-49.4341,"emendas":[],"indicacoes":[]},{"ibge":"3557303","nome":"Estiva Gerbi","populacao":11566,"eleitores":9616,"colocacao":293,"votos":26,"pctVotos":0.0039,"lat":-22.2713,"lon":-46.9481,"emendas":[],"indicacoes":[]},{"ibge":"3515301","nome":"Estrela do Norte","populacao":2749,"eleitores":7152,"colocacao":578,"votos":3,"pctVotos":0.0016,"lat":-22.4859,"lon":-51.6632,"emendas":[],"indicacoes":[]},{"ibge":"3515202","nome":"Estrela Doeste","populacao":9655,"eleitores":2541,"colocacao":534,"votos":5,"pctVotos":0.001,"lat":-20.2875,"lon":-50.4049,"emendas":[],"indicacoes":[]},{"ibge":"3515350","nome":"Euclides da Cunha Paulista","populacao":7928,"eleitores":6590,"colocacao":529,"votos":5,"pctVotos":0.0011,"lat":-22.5545,"lon":-52.5928,"emendas":[],"indicacoes":[]},{"ibge":"3515400","nome":"Fartura","populacao":16984,"eleitores":12627,"colocacao":264,"votos":32,"pctVotos":0.0036,"lat":-23.3916,"lon":-49.5124,"emendas":[],"indicacoes":[]},{"ibge":"3515608","nome":"Fernando Prestes","populacao":6066,"eleitores":5120,"colocacao":579,"votos":3,"pctVotos":0.0009,"lat":-21.2661,"lon":-48.6874,"emendas":[],"indicacoes":[]},{"ibge":"3515509","nome":"Fernandópolis","populacao":73286,"eleitores":50691,"colocacao":141,"votos":102,"pctVotos":0.003,"lat":-20.2806,"lon":-50.2471,"emendas":[],"indicacoes":[]},{"ibge":"3515657","nome":"Fernão","populacao":1689,"eleitores":1754,"colocacao":574,"votos":3,"pctVotos":0.0027,"lat":-22.3607,"lon":-49.5187,"emendas":[],"indicacoes":[]},{"ibge":"3515707","nome":"Ferraz de Vasconcelos","populacao":185622,"eleitores":127796,"colocacao":116,"votos":128,"pctVotos":0.0014,"lat":-23.5411,"lon":-46.371,"emendas":[],"indicacoes":[]},{"ibge":"3515806","nome":"Flora Rica","populacao":1492,"eleitores":1489,"colocacao":618,"votos":1,"pctVotos":0.0009,"lat":-21.6727,"lon":-51.3821,"emendas":[],"indicacoes":[]},{"ibge":"3515905","nome":"Floreal","populacao":2756,"eleitores":2766,"colocacao":498,"votos":7,"pctVotos":0.0037,"lat":-20.6752,"lon":-50.1513,"emendas":[],"indicacoes":[]},{"ibge":"3516002","nome":"Flórida Paulista","populacao":13171,"eleitores":7455,"colocacao":365,"votos":17,"pctVotos":0.0032,"lat":-21.6127,"lon":-51.1724,"emendas":[],"indicacoes":[]},{"ibge":"3516101","nome":"Florínea","populacao":3987,"eleitores":2736,"colocacao":0,"votos":0,"pctVotos":0,"lat":-22.868,"lon":-50.6814,"emendas":[],"indicacoes":[]},{"ibge":"3516200","nome":"Franca","populacao":364331,"eleitores":248525,"colocacao":26,"votos":552,"pctVotos":0.0032,"lat":-20.5352,"lon":-47.4039,"emendas":[],"indicacoes":[]},{"ibge":"3516309","nome":"Francisco Morato","populacao":171107,"eleitores":126443,"colocacao":70,"votos":236,"pctVotos":0.0028,"lat":-23.2792,"lon":-46.7448,"emendas":[],"indicacoes":[]},{"ibge":"3516408","nome":"Franco da Rocha","populacao":149786,"eleitores":107779,"colocacao":102,"votos":149,"pctVotos":0.0022,"lat":-23.3229,"lon":-46.729,"emendas":[],"indicacoes":[]},{"ibge":"3516507","nome":"Gabriel Monteiro","populacao":2811,"eleitores":2745,"colocacao":619,"votos":1,"pctVotos":0.0005,"lat":-21.5294,"lon":-50.5573,"emendas":[],"indicacoes":[]},{"ibge":"3516606","nome":"Gália","populacao":6435,"eleitores":4742,"colocacao":401,"votos":12,"pctVotos":0.0033,"lat":-22.2918,"lon":-49.5504,"emendas":[],"indicacoes":[]},{"ibge":"3516705","nome":"Garça","populacao":43115,"eleitores":32862,"colocacao":176,"votos":75,"pctVotos":0.0034,"lat":-22.2125,"lon":-49.6546,"emendas":[{"id":49,"segmento":"Saúde","objeto":"Custeio","valor":1000000,"status":null,"ano":2026,"tipo":"Voluntária","lote":"Voluntárias - Abril/2026","secretaria":"Saúde","beneficiario":"Garça","codigoEmenda":null,"numeroIndicacao":"7392/26","cancelada":"Não","validacao":"Confirmado","fonteValidacao":"Painel Power BI - Transferências Voluntárias 2026 - Dep. Estaduais (governo.sp.gov.br/sec_governo_relacoes/painel/voluntarias_estaduais_2026)","observacaoValidacao":"Confirmado individualmente no painel oficial (código, valor, cidade, indicação). Total R$ 10.000.000 confere exatamente com os 6 registros do lote de Abril/2026.","observacoes":null}],"indicacoes":[]},{"ibge":"3516804","nome":"Gastão Vidigal","populacao":3235,"eleitores":2963,"colocacao":581,"votos":2,"pctVotos":0.001,"lat":-20.7948,"lon":-50.1912,"emendas":[],"indicacoes":[]},{"ibge":"3516853","nome":"Gavião Peixoto","populacao":4797,"eleitores":4207,"colocacao":493,"votos":7,"pctVotos":0.0026,"lat":-21.8367,"lon":-48.4957,"emendas":[],"indicacoes":[]},{"ibge":"3516903","nome":"General Salgado","populacao":10449,"eleitores":8427,"colocacao":295,"votos":26,"pctVotos":0.0045,"lat":-20.6485,"lon":-50.364,"emendas":[],"indicacoes":[]},{"ibge":"3517000","nome":"Getulina","populacao":10355,"eleitores":7381,"colocacao":400,"votos":12,"pctVotos":0.0025,"lat":-21.7961,"lon":-49.9312,"emendas":[],"indicacoes":[]},{"ibge":"3517109","nome":"Glicério","populacao":4173,"eleitores":4137,"colocacao":533,"votos":5,"pctVotos":0.0019,"lat":-21.3812,"lon":-50.2123,"emendas":[],"indicacoes":[]},{"ibge":"3517208","nome":"Guaiçara","populacao":11459,"eleitores":8219,"colocacao":386,"votos":15,"pctVotos":0.0028,"lat":-21.6195,"lon":-49.8013,"emendas":[],"indicacoes":[]},{"ibge":"3517307","nome":"Guaimbé","populacao":5606,"eleitores":4686,"colocacao":580,"votos":3,"pctVotos":0.0009,"lat":-21.9091,"lon":-49.8986,"emendas":[],"indicacoes":[]},{"ibge":"3517406","nome":"Guaíra","populacao":40424,"eleitores":28930,"colocacao":197,"votos":61,"pctVotos":0.0034,"lat":-20.3196,"lon":-48.312,"emendas":[],"indicacoes":[]},{"ibge":"3517505","nome":"Guapiaçu","populacao":22316,"eleitores":16107,"colocacao":221,"votos":48,"pctVotos":0.0047,"lat":-20.7959,"lon":-49.2172,"emendas":[],"indicacoes":[]},{"ibge":"3517604","nome":"Guapiara","populacao":17256,"eleitores":13906,"colocacao":336,"votos":20,"pctVotos":0.002,"lat":-24.1892,"lon":-48.5295,"emendas":[],"indicacoes":[]},{"ibge":"3517703","nome":"Guará","populacao":18790,"eleitores":14456,"colocacao":334,"votos":21,"pctVotos":0.0021,"lat":-20.4302,"lon":-47.8236,"emendas":[],"indicacoes":[]},{"ibge":"3517802","nome":"Guaraçaí","populacao":7486,"eleitores":6221,"colocacao":537,"votos":5,"pctVotos":0.0011,"lat":-21.0292,"lon":-51.2119,"emendas":[],"indicacoes":[]},{"ibge":"3517901","nome":"Guaraci","populacao":10542,"eleitores":8171,"colocacao":333,"votos":21,"pctVotos":0.0036,"lat":-20.4977,"lon":-48.9391,"emendas":[],"indicacoes":[]},{"ibge":"3518008","nome":"Guarani Doeste","populacao":1999,"eleitores":1867,"colocacao":622,"votos":1,"pctVotos":0.0008,"lat":-20.0746,"lon":-50.3411,"emendas":[],"indicacoes":[]},{"ibge":"3518107","nome":"Guarantã","populacao":6531,"eleitores":4821,"colocacao":623,"votos":1,"pctVotos":0.0003,"lat":-21.8942,"lon":-49.5914,"emendas":[],"indicacoes":[]},{"ibge":"3518206","nome":"Guararapes","populacao":31872,"eleitores":23855,"colocacao":306,"votos":24,"pctVotos":0.0014,"lat":-21.2544,"lon":-50.6453,"emendas":[],"indicacoes":[]},{"ibge":"3518305","nome":"Guararema","populacao":32436,"eleitores":26536,"colocacao":317,"votos":23,"pctVotos":0.0012,"lat":-23.4112,"lon":-46.0369,"emendas":[],"indicacoes":[]},{"ibge":"3518404","nome":"Guaratinguetá","populacao":121710,"eleitores":90907,"colocacao":122,"votos":123,"pctVotos":0.0018,"lat":-22.8075,"lon":-45.1938,"emendas":[],"indicacoes":[]},{"ibge":"3518503","nome":"Guareí","populacao":15268,"eleitores":8947,"colocacao":387,"votos":15,"pctVotos":0.0024,"lat":-23.3714,"lon":-48.1837,"emendas":[],"indicacoes":[]},{"ibge":"3518602","nome":"Guariba","populacao":38609,"eleitores":28151,"colocacao":229,"votos":43,"pctVotos":0.0021,"lat":-21.3594,"lon":-48.2316,"emendas":[],"indicacoes":[]},{"ibge":"3518701","nome":"Guarujá","populacao":294973,"eleitores":241669,"colocacao":12,"votos":890,"pctVotos":0.0055,"lat":-23.9888,"lon":-46.258,"emendas":[],"indicacoes":[]},{"ibge":"3518800","nome":"Guarulhos","populacao":1345364,"eleitores":951798,"colocacao":5,"votos":1495,"pctVotos":0.0023,"lat":-23.4538,"lon":-46.5333,"emendas":[],"indicacoes":[{"id":11,"segmento":"Educação","objeto":"Aquisição de equipamentos de informática (Chromebooks e notebooks)","valorEstimado":null,"status":"Demanda em articulação - sem valor definido","categoria":"Equipamentos de Informática (Chromebooks/Notebooks)","escola":"EE Agostinho Cano","prefeito":null,"vereador":null,"validacao":"Não localizado","fonteValidacao":"Painéis Power BI oficiais - Emendas Impositivas 2024/2025/2026 e Emendas Voluntárias 2023/2024/2025/2026 (governo.sp.gov.br/sec_governo_relacoes/painel), filtrados por Parlamentar = Paulo Mansur, consultados em 12/07/2026.","observacaoValidacao":"Item ainda não localizado como emenda parlamentar formalizada em nenhum dos 7 painéis oficiais de emendas de Paulo Mansur. Trata-se de demanda em fase de articulação política, sem código de emenda/indicação vinculado nos dados abertos do governo até o momento da consulta.","observacoes":null,"fonteArquivo":"Demandas Educação 2025.xlsx"}]},{"ibge":"3518859","nome":"Guatapará","populacao":7462,"eleitores":5966,"colocacao":446,"votos":9,"pctVotos":0.0023,"lat":-21.4944,"lon":-48.0356,"emendas":[],"indicacoes":[]},{"ibge":"3518909","nome":"Guzolândia","populacao":4276,"eleitores":3654,"colocacao":496,"votos":7,"pctVotos":0.0028,"lat":-20.6467,"lon":-50.6645,"emendas":[],"indicacoes":[]},{"ibge":"3519006","nome":"Herculândia","populacao":9302,"eleitores":7087,"colocacao":538,"votos":4,"pctVotos":0.0008,"lat":-22.0038,"lon":-50.3907,"emendas":[],"indicacoes":[]},{"ibge":"3519055","nome":"Holambra","populacao":15596,"eleitores":12186,"colocacao":170,"votos":78,"pctVotos":0.0088,"lat":-22.6405,"lon":-47.0487,"emendas":[],"indicacoes":[]},{"ibge":"3519071","nome":"Hortolândia","populacao":247331,"eleitores":160527,"colocacao":13,"votos":821,"pctVotos":0.0071,"lat":-22.8529,"lon":-47.2143,"emendas":[],"indicacoes":[]},{"ibge":"3519105","nome":"Iacanga","populacao":10633,"eleitores":8413,"colocacao":349,"votos":19,"pctVotos":0.0032,"lat":-21.8896,"lon":-49.031,"emendas":[],"indicacoes":[]},{"ibge":"3519204","nome":"Iacri","populacao":6207,"eleitores":4917,"colocacao":458,"votos":8,"pctVotos":0.0023,"lat":-21.8572,"lon":-50.6932,"emendas":[],"indicacoes":[]},{"ibge":"3519253","nome":"Iaras","populacao":8257,"eleitores":4649,"colocacao":489,"votos":7,"pctVotos":0.0025,"lat":-22.8682,"lon":-49.1634,"emendas":[],"indicacoes":[]},{"ibge":"3519303","nome":"Ibaté","populacao":33110,"eleitores":26978,"colocacao":149,"votos":96,"pctVotos":0.0061,"lat":-21.9584,"lon":-47.9882,"emendas":[],"indicacoes":[]},{"ibge":"3519402","nome":"Ibirá","populacao":11934,"eleitores":9184,"colocacao":399,"votos":12,"pctVotos":0.0019,"lat":-21.083,"lon":-49.2448,"emendas":[],"indicacoes":[]},{"ibge":"3519501","nome":"Ibirarema","populacao":6461,"eleitores":5114,"colocacao":535,"votos":5,"pctVotos":0.0014,"lat":-22.8185,"lon":-50.0739,"emendas":[],"indicacoes":[]},{"ibge":"3519600","nome":"Ibitinga","populacao":61908,"eleitores":41564,"colocacao":105,"votos":144,"pctVotos":0.005,"lat":-21.7562,"lon":-48.8319,"emendas":[],"indicacoes":[]},{"ibge":"3519709","nome":"Ibiúna","populacao":77651,"eleitores":61517,"colocacao":97,"votos":162,"pctVotos":0.004,"lat":-23.6596,"lon":-47.223,"emendas":[],"indicacoes":[]},{"ibge":"3519808","nome":"Icém","populacao":7969,"eleitores":6248,"colocacao":422,"votos":10,"pctVotos":0.0022,"lat":-20.3391,"lon":-49.1915,"emendas":[],"indicacoes":[]},{"ibge":"3519907","nome":"Iepê","populacao":7739,"eleitores":6021,"colocacao":305,"votos":24,"pctVotos":0.0053,"lat":-22.6602,"lon":-51.0779,"emendas":[],"indicacoes":[]},{"ibge":"3520004","nome":"Igaraçu do Tietê","populacao":23430,"eleitores":17836,"colocacao":222,"votos":48,"pctVotos":0.0041,"lat":-22.509,"lon":-48.5597,"emendas":[],"indicacoes":[]},{"ibge":"3520103","nome":"Igarapava","populacao":26755,"eleitores":19829,"colocacao":187,"votos":68,"pctVotos":0.0053,"lat":-20.0407,"lon":-47.7466,"emendas":[],"indicacoes":[]},{"ibge":"3520202","nome":"Igaratá","populacao":10904,"eleitores":9442,"colocacao":497,"votos":7,"pctVotos":0.0011,"lat":-23.2037,"lon":-46.157,"emendas":[],"indicacoes":[]},{"ibge":"3520301","nome":"Iguape","populacao":29881,"eleitores":22050,"colocacao":237,"votos":40,"pctVotos":0.0027,"lat":-24.699,"lon":-47.5537,"emendas":[],"indicacoes":[]},{"ibge":"3520426","nome":"Ilha Comprida","populacao":13955,"eleitores":13528,"colocacao":267,"votos":32,"pctVotos":0.004,"lat":-24.7307,"lon":-47.5383,"emendas":[],"indicacoes":[]},{"ibge":"3520442","nome":"Ilha Solteira","populacao":26240,"eleitores":20589,"colocacao":223,"votos":46,"pctVotos":0.0034,"lat":-20.4326,"lon":-51.3426,"emendas":[],"indicacoes":[]},{"ibge":"3520400","nome":"Ilhabela","populacao":36329,"eleitores":30563,"colocacao":175,"votos":75,"pctVotos":0.0038,"lat":-23.7785,"lon":-45.3552,"emendas":[],"indicacoes":[]},{"ibge":"3520509","nome":"Indaiatuba","populacao":267796,"eleitores":184033,"colocacao":68,"votos":239,"pctVotos":0.0018,"lat":-23.0816,"lon":-47.2101,"emendas":[],"indicacoes":[]},{"ibge":"3520608","nome":"Indiana","populacao":5191,"eleitores":4146,"colocacao":539,"votos":4,"pctVotos":0.0014,"lat":-22.1738,"lon":-51.2555,"emendas":[],"indicacoes":[]},{"ibge":"3520707","nome":"Indiaporã","populacao":4109,"eleitores":3253,"colocacao":536,"votos":5,"pctVotos":0.0022,"lat":-19.979,"lon":-50.2909,"emendas":[],"indicacoes":[]},{"ibge":"3520806","nome":"Inúbia Paulista","populacao":3671,"eleitores":3198,"colocacao":452,"votos":9,"pctVotos":0.0041,"lat":-21.7695,"lon":-50.9633,"emendas":[],"indicacoes":[]},{"ibge":"3520905","nome":"Ipaussu","populacao":13933,"eleitores":10012,"colocacao":335,"votos":21,"pctVotos":0.0029,"lat":-23.0575,"lon":-49.6279,"emendas":[],"indicacoes":[]},{"ibge":"3521002","nome":"Iperó","populacao":37999,"eleitores":21559,"colocacao":220,"votos":48,"pctVotos":0.0033,"lat":-23.3513,"lon":-47.6927,"emendas":[],"indicacoes":[]},{"ibge":"3521101","nome":"Ipeúna","populacao":6999,"eleitores":6009,"colocacao":396,"votos":13,"pctVotos":0.0033,"lat":-22.4355,"lon":-47.7151,"emendas":[],"indicacoes":[]},{"ibge":"3521150","nome":"Ipiguá","populacao":7037,"eleitores":4932,"colocacao":459,"votos":8,"pctVotos":0.0027,"lat":-20.6557,"lon":-49.3842,"emendas":[],"indicacoes":[]},{"ibge":"3521200","nome":"Iporanga","populacao":4091,"eleitores":3331,"colocacao":0,"votos":0,"pctVotos":0,"lat":-24.5847,"lon":-48.5971,"emendas":[],"indicacoes":[]},{"ibge":"3521309","nome":"Ipuã","populacao":14691,"eleitores":11460,"colocacao":343,"votos":19,"pctVotos":0.0024,"lat":-20.4438,"lon":-48.0129,"emendas":[],"indicacoes":[]},{"ibge":"3521408","nome":"Iracemápolis","populacao":22435,"eleitores":17604,"colocacao":297,"votos":26,"pctVotos":0.002,"lat":-22.5832,"lon":-47.523,"emendas":[],"indicacoes":[]},{"ibge":"3521507","nome":"Irapuã","populacao":6946,"eleitores":5569,"colocacao":300,"votos":25,"pctVotos":0.0068,"lat":-21.2768,"lon":-49.4164,"emendas":[],"indicacoes":[]},{"ibge":"3521606","nome":"Irapuru","populacao":7145,"eleitores":4656,"colocacao":444,"votos":9,"pctVotos":0.0028,"lat":-21.5684,"lon":-51.3472,"emendas":[],"indicacoes":[]},{"ibge":"3521705","nome":"Itaberá","populacao":18258,"eleitores":13709,"colocacao":384,"votos":15,"pctVotos":0.0015,"lat":-23.8638,"lon":-49.14,"emendas":[],"indicacoes":[]},{"ibge":"3521804","nome":"Itaí","populacao":25930,"eleitores":16712,"colocacao":219,"votos":51,"pctVotos":0.0045,"lat":-23.4213,"lon":-49.092,"emendas":[],"indicacoes":[]},{"ibge":"3521903","nome":"Itajobi","populacao":17420,"eleitores":12480,"colocacao":185,"votos":69,"pctVotos":0.008,"lat":-21.3123,"lon":-49.0629,"emendas":[],"indicacoes":[]},{"ibge":"3522000","nome":"Itaju","populacao":3702,"eleitores":3235,"colocacao":445,"votos":9,"pctVotos":0.0043,"lat":-21.9857,"lon":-48.8116,"emendas":[],"indicacoes":[]},{"ibge":"3522109","nome":"Itanhaém","populacao":117435,"eleitores":82753,"colocacao":55,"votos":267,"pctVotos":0.005,"lat":-24.1736,"lon":-46.788,"emendas":[],"indicacoes":[]},{"ibge":"3522158","nome":"Itaoca","populacao":3490,"eleitores":3017,"colocacao":567,"votos":3,"pctVotos":0.0015,"lat":-24.6393,"lon":-48.8413,"emendas":[],"indicacoes":[]},{"ibge":"3522208","nome":"Itapecerica da Serra","populacao":163928,"eleitores":121288,"colocacao":87,"votos":186,"pctVotos":0.0023,"lat":-23.7161,"lon":-46.8572,"emendas":[],"indicacoes":[]},{"ibge":"3522307","nome":"Itapetininga","populacao":163774,"eleitores":112836,"colocacao":61,"votos":253,"pctVotos":0.0032,"lat":-23.5886,"lon":-48.0483,"emendas":[],"indicacoes":[]},{"ibge":"3522406","nome":"Itapeva","populacao":92324,"eleitores":69159,"colocacao":137,"votos":107,"pctVotos":0.0022,"lat":-23.9788,"lon":-48.8764,"emendas":[],"indicacoes":[]},{"ibge":"3522505","nome":"Itapevi","populacao":241924,"eleitores":168777,"colocacao":90,"votos":179,"pctVotos":0.0016,"lat":-23.5488,"lon":-46.9327,"emendas":[],"indicacoes":[]},{"ibge":"3522604","nome":"Itapira","populacao":73919,"eleitores":53672,"colocacao":91,"votos":177,"pctVotos":0.0048,"lat":-22.4357,"lon":-46.8224,"emendas":[],"indicacoes":[]},{"ibge":"3522653","nome":"Itapirapuã Paulista","populacao":4405,"eleitores":3330,"colocacao":461,"votos":8,"pctVotos":0.0036,"lat":-24.572,"lon":-49.1661,"emendas":[],"indicacoes":[]},{"ibge":"3522703","nome":"Itápolis","populacao":40464,"eleitores":29164,"colocacao":126,"votos":119,"pctVotos":0.006,"lat":-21.5942,"lon":-48.8149,"emendas":[],"indicacoes":[]},{"ibge":"3522802","nome":"Itaporanga","populacao":14260,"eleitores":11119,"colocacao":277,"votos":29,"pctVotos":0.0039,"lat":-23.7043,"lon":-49.4819,"emendas":[],"indicacoes":[]},{"ibge":"3522901","nome":"Itapuí","populacao":13984,"eleitores":9692,"colocacao":370,"votos":16,"pctVotos":0.0023,"lat":-22.2324,"lon":-48.7197,"emendas":[],"indicacoes":[]},{"ibge":"3523008","nome":"Itapura","populacao":4014,"eleitores":3732,"colocacao":549,"votos":4,"pctVotos":0.0017,"lat":-20.6419,"lon":-51.5063,"emendas":[],"indicacoes":[]},{"ibge":"3523107","nome":"Itaquaquecetuba","populacao":382521,"eleitores":259669,"colocacao":42,"votos":334,"pctVotos":0.002,"lat":-23.4835,"lon":-46.3457,"emendas":[],"indicacoes":[]},{"ibge":"3523206","nome":"Itararé","populacao":45327,"eleitores":34051,"colocacao":228,"votos":43,"pctVotos":0.0018,"lat":-24.1085,"lon":-49.3352,"emendas":[],"indicacoes":[]},{"ibge":"3523305","nome":"Itariri","populacao":15762,"eleitores":9941,"colocacao":315,"votos":23,"pctVotos":0.0036,"lat":-24.2834,"lon":-47.1736,"emendas":[],"indicacoes":[]},{"ibge":"3523404","nome":"Itatiba","populacao":126403,"eleitores":83073,"colocacao":32,"votos":460,"pctVotos":0.0078,"lat":-23.0035,"lon":-46.8464,"emendas":[],"indicacoes":[]},{"ibge":"3523503","nome":"Itatinga","populacao":19427,"eleitores":14284,"colocacao":225,"votos":45,"pctVotos":0.0049,"lat":-23.1047,"lon":-48.6157,"emendas":[],"indicacoes":[]},{"ibge":"3523602","nome":"Itirapina","populacao":16433,"eleitores":10761,"colocacao":443,"votos":9,"pctVotos":0.0014,"lat":-22.2562,"lon":-47.8166,"emendas":[],"indicacoes":[]},{"ibge":"3523701","nome":"Itirapuã","populacao":5861,"eleitores":5439,"colocacao":550,"votos":4,"pctVotos":0.0012,"lat":-20.6416,"lon":-47.2194,"emendas":[],"indicacoes":[]},{"ibge":"3523800","nome":"Itobi","populacao":8210,"eleitores":6077,"colocacao":340,"votos":20,"pctVotos":0.0046,"lat":-21.7309,"lon":-46.9743,"emendas":[],"indicacoes":[]},{"ibge":"3523909","nome":"Itu","populacao":174561,"eleitores":130162,"colocacao":51,"votos":279,"pctVotos":0.0033,"lat":-23.2544,"lon":-47.2927,"emendas":[{"id":4,"segmento":"Saúde","objeto":"Custeio","valor":2676120,"status":"OK","ano":2024,"tipo":"Impositiva","lote":"Impositivas - 2024","secretaria":"Saúde","beneficiario":"Santa Casa de Itu","codigoEmenda":"2024.261.60385","numeroIndicacao":null,"cancelada":"Não","validacao":"Confirmado","fonteValidacao":"Painel Power BI - LOA 2026 Emendas Impositivas / LOA 2024 Emendas Impositivas (governo.sp.gov.br/sec_governo_relacoes/painel/impositivas2024)","observacaoValidacao":"Confirmado a nível de código de emenda: valor, código, beneficiário e município batem exatamente com o registro oficial de execução. Total de R$ 10.976.120 confere. (Nota: a divergência apontada anteriormente com base no PDF resumido da ALESP foi resolvida - o painel granular não mostra nenhuma emenda de Educação para Paulo Mansur em 2024; a leitura anterior era de um documento menos detalhado.)","observacoes":null},{"id":35,"segmento":"Saúde","objeto":"Custeio","valor":2000000,"status":"OK","ano":2025,"tipo":"Voluntária","lote":"Voluntárias - 2025","secretaria":"Saúde","beneficiario":"Itu","codigoEmenda":null,"numeroIndicacao":"17054/25","cancelada":"Não","validacao":"Confirmado","fonteValidacao":"Painel Power BI - Transferências Voluntárias 2025 - Dep. Estaduais (governo.sp.gov.br/sec_governo_relacoes/painel/voluntarias_estaduais_2025)","observacaoValidacao":"Confirmado individualmente no painel oficial (código, valor, cidade, indicação, status). Total R$ 20.000.000 confere exatamente com os 10 registros.","observacoes":null}],"indicacoes":[]},{"ibge":"3524006","nome":"Itupeva","populacao":74119,"eleitores":48947,"colocacao":130,"votos":114,"pctVotos":0.0037,"lat":-23.1526,"lon":-47.0593,"emendas":[],"indicacoes":[]},{"ibge":"3524105","nome":"Ituverava","populacao":38451,"eleitores":27876,"colocacao":195,"votos":63,"pctVotos":0.0033,"lat":-20.3355,"lon":-47.7902,"emendas":[],"indicacoes":[]},{"ibge":"3524204","nome":"Jaborandi","populacao":6293,"eleitores":5085,"colocacao":417,"votos":11,"pctVotos":0.0031,"lat":-20.6884,"lon":-48.4112,"emendas":[],"indicacoes":[]},{"ibge":"3524303","nome":"Jaboticabal","populacao":73467,"eleitores":51089,"colocacao":136,"votos":107,"pctVotos":0.003,"lat":-21.252,"lon":-48.3252,"emendas":[],"indicacoes":[]},{"ibge":"3524402","nome":"Jacareí","populacao":249968,"eleitores":169286,"colocacao":37,"votos":363,"pctVotos":0.0031,"lat":-23.2983,"lon":-45.9658,"emendas":[],"indicacoes":[]},{"ibge":"3524501","nome":"Jaci","populacao":7878,"eleitores":5781,"colocacao":563,"votos":3,"pctVotos":0.0007,"lat":-20.8805,"lon":-49.5797,"emendas":[],"indicacoes":[]},{"ibge":"3524600","nome":"Jacupiranga","populacao":16254,"eleitores":12468,"colocacao":284,"votos":28,"pctVotos":0.0032,"lat":-24.6963,"lon":-48.0064,"emendas":[],"indicacoes":[]},{"ibge":"3524709","nome":"Jaguariúna","populacao":61801,"eleitores":44525,"colocacao":52,"votos":277,"pctVotos":0.0093,"lat":-22.7037,"lon":-46.9851,"emendas":[{"id":3,"segmento":"Saúde","objeto":"Custeio","valor":2000000,"status":"OK","ano":2024,"tipo":"Impositiva","lote":"Impositivas - 2024","secretaria":"Saúde","beneficiario":"Prefeitura Jaguariúna","codigoEmenda":"2024.261.60386","numeroIndicacao":null,"cancelada":"Não","validacao":"Confirmado","fonteValidacao":"Painel Power BI - LOA 2026 Emendas Impositivas / LOA 2024 Emendas Impositivas (governo.sp.gov.br/sec_governo_relacoes/painel/impositivas2024)","observacaoValidacao":"Confirmado a nível de código de emenda: valor, código, beneficiário e município batem exatamente com o registro oficial de execução. Total de R$ 10.976.120 confere. (Nota: a divergência apontada anteriormente com base no PDF resumido da ALESP foi resolvida - o painel granular não mostra nenhuma emenda de Educação para Paulo Mansur em 2024; a leitura anterior era de um documento menos detalhado.)","observacoes":null}],"indicacoes":[]},{"ibge":"3524808","nome":"Jales","populacao":50017,"eleitores":36249,"colocacao":107,"votos":141,"pctVotos":0.0057,"lat":-20.2672,"lon":-50.5494,"emendas":[],"indicacoes":[{"id":12,"segmento":"Educação","objeto":"Aquisição de equipamentos de informática (Chromebooks e notebooks)","valorEstimado":null,"status":"Demanda em articulação - sem valor definido","categoria":"Equipamentos de Informática (Chromebooks/Notebooks)","escola":"EE Euphly Jalles Doutor","prefeito":null,"vereador":null,"validacao":"Não localizado","fonteValidacao":"Painéis Power BI oficiais - Emendas Impositivas 2024/2025/2026 e Emendas Voluntárias 2023/2024/2025/2026 (governo.sp.gov.br/sec_governo_relacoes/painel), filtrados por Parlamentar = Paulo Mansur, consultados em 12/07/2026.","observacaoValidacao":"Item ainda não localizado como emenda parlamentar formalizada em nenhum dos 7 painéis oficiais de emendas de Paulo Mansur. Trata-se de demanda em fase de articulação política, sem código de emenda/indicação vinculado nos dados abertos do governo até o momento da consulta.","observacoes":null,"fonteArquivo":"Demandas Educação 2025.xlsx"}]},{"ibge":"3524907","nome":"Jambeiro","populacao":6575,"eleitores":5085,"colocacao":427,"votos":10,"pctVotos":0.0029,"lat":-23.2522,"lon":-45.6942,"emendas":[],"indicacoes":[]},{"ibge":"3525003","nome":"Jandira","populacao":121988,"eleitores":75567,"colocacao":106,"votos":143,"pctVotos":0.0026,"lat":-23.5275,"lon":-46.9023,"emendas":[],"indicacoes":[]},{"ibge":"3525102","nome":"Jardinópolis","populacao":46868,"eleitores":29189,"colocacao":145,"votos":100,"pctVotos":0.0054,"lat":-21.0176,"lon":-47.7606,"emendas":[],"indicacoes":[]},{"ibge":"3525201","nome":"Jarinu","populacao":39531,"eleitores":26516,"colocacao":104,"votos":145,"pctVotos":0.0086,"lat":-23.1039,"lon":-46.728,"emendas":[],"indicacoes":[]},{"ibge":"3525300","nome":"Jaú","populacao":137323,"eleitores":98570,"colocacao":8,"votos":1194,"pctVotos":0.0171,"lat":-22.2936,"lon":-48.5592,"emendas":[],"indicacoes":[{"id":6,"segmento":"Educação","objeto":"Aquisição de ônibus escolar","valorEstimado":null,"status":"Demanda em articulação - sem valor definido","categoria":"Ônibus Escolar","escola":null,"prefeito":null,"vereador":null,"validacao":"Não localizado","fonteValidacao":"Painéis Power BI oficiais - Emendas Impositivas 2024/2025/2026 e Emendas Voluntárias 2023/2024/2025/2026 (governo.sp.gov.br/sec_governo_relacoes/painel), filtrados por Parlamentar = Paulo Mansur, consultados em 12/07/2026.","observacaoValidacao":"Item ainda não localizado como emenda parlamentar formalizada em nenhum dos 7 painéis oficiais de emendas de Paulo Mansur. Trata-se de demanda em fase de articulação política, sem código de emenda/indicação vinculado nos dados abertos do governo até o momento da consulta.","observacoes":null,"fonteArquivo":"VEÍCULOS E MÁQUINAS - PAULO MANSUR.docx"}]},{"ibge":"3525409","nome":"Jeriquara","populacao":3976,"eleitores":3445,"colocacao":596,"votos":2,"pctVotos":0.0009,"lat":-20.3116,"lon":-47.5918,"emendas":[],"indicacoes":[]},{"ibge":"3525508","nome":"Joanópolis","populacao":13095,"eleitores":9422,"colocacao":339,"votos":20,"pctVotos":0.003,"lat":-22.927,"lon":-46.2741,"emendas":[],"indicacoes":[]},{"ibge":"3525607","nome":"João Ramalho","populacao":4456,"eleitores":3610,"colocacao":487,"votos":7,"pctVotos":0.0029,"lat":-22.2473,"lon":-50.7694,"emendas":[],"indicacoes":[]},{"ibge":"3525706","nome":"José Bonifácio","populacao":37859,"eleitores":27252,"colocacao":200,"votos":59,"pctVotos":0.0032,"lat":-21.0551,"lon":-49.6892,"emendas":[],"indicacoes":[]},{"ibge":"3525805","nome":"Júlio Mesquita","populacao":4308,"eleitores":3778,"colocacao":547,"votos":4,"pctVotos":0.0015,"lat":-22.0112,"lon":-49.7873,"emendas":[],"indicacoes":[]},{"ibge":"3525854","nome":"Jumirim","populacao":3056,"eleitores":2473,"colocacao":583,"votos":2,"pctVotos":0.0012,"lat":-23.0884,"lon":-47.7868,"emendas":[],"indicacoes":[]},{"ibge":"3525904","nome":"Jundiaí","populacao":460313,"eleitores":336406,"colocacao":18,"votos":705,"pctVotos":0.003,"lat":-23.1852,"lon":-46.8974,"emendas":[],"indicacoes":[]},{"ibge":"3526001","nome":"Junqueirópolis","populacao":20878,"eleitores":14321,"colocacao":325,"votos":22,"pctVotos":0.0023,"lat":-21.5103,"lon":-51.4342,"emendas":[],"indicacoes":[]},{"ibge":"3526100","nome":"Juquiá","populacao":17255,"eleitores":15468,"colocacao":361,"votos":17,"pctVotos":0.0016,"lat":-24.3101,"lon":-47.6426,"emendas":[],"indicacoes":[]},{"ibge":"3526209","nome":"Juquitiba","populacao":28007,"eleitores":23114,"colocacao":240,"votos":38,"pctVotos":0.0023,"lat":-23.9244,"lon":-47.0653,"emendas":[],"indicacoes":[]},{"ibge":"3526308","nome":"Lagoinha","populacao":5182,"eleitores":5567,"colocacao":607,"votos":1,"pctVotos":0.0003,"lat":-23.0846,"lon":-45.1944,"emendas":[],"indicacoes":[]},{"ibge":"3526407","nome":"Laranjal Paulista","populacao":27009,"eleitores":21245,"colocacao":125,"votos":120,"pctVotos":0.0084,"lat":-23.0506,"lon":-47.8375,"emendas":[],"indicacoes":[]},{"ibge":"3526506","nome":"Lavínia","populacao":9909,"eleitores":3943,"colocacao":0,"votos":0,"pctVotos":0,"lat":-21.1639,"lon":-51.0412,"emendas":[],"indicacoes":[{"id":33,"segmento":"Infraestrutura","objeto":"01 Trator","valorEstimado":null,"status":"Demanda em articulação - sem valor definido","categoria":"Maquinário","escola":null,"prefeito":null,"vereador":null,"validacao":"Não localizado","fonteValidacao":"Painéis Power BI oficiais - Emendas Impositivas 2024/2025/2026 e Emendas Voluntárias 2023/2024/2025/2026 (governo.sp.gov.br/sec_governo_relacoes/painel), filtrados por Parlamentar = Paulo Mansur, consultados em 12/07/2026.","observacaoValidacao":"Item ainda não localizado como emenda parlamentar formalizada em nenhum dos 7 painéis oficiais de emendas de Paulo Mansur. Trata-se de demanda em fase de articulação política, sem código de emenda/indicação vinculado nos dados abertos do governo até o momento da consulta.","observacoes":null,"fonteArquivo":"VEÍCULOS E MÁQUINAS - PAULO MANSUR.docx"}]},{"ibge":"3526605","nome":"Lavrinhas","populacao":7328,"eleitores":6155,"colocacao":404,"votos":12,"pctVotos":0.0027,"lat":-22.57,"lon":-44.9024,"emendas":[],"indicacoes":[]},{"ibge":"3526704","nome":"Leme","populacao":101316,"eleitores":72964,"colocacao":48,"votos":297,"pctVotos":0.0062,"lat":-22.1809,"lon":-47.3841,"emendas":[],"indicacoes":[]},{"ibge":"3526803","nome":"Lençóis Paulista","populacao":68395,"eleitores":50590,"colocacao":50,"votos":280,"pctVotos":0.008,"lat":-22.6027,"lon":-48.8037,"emendas":[],"indicacoes":[]},{"ibge":"3526902","nome":"Limeira","populacao":300728,"eleitores":219001,"colocacao":17,"votos":706,"pctVotos":0.0044,"lat":-22.566,"lon":-47.397,"emendas":[],"indicacoes":[]},{"ibge":"3527009","nome":"Lindóia","populacao":7147,"eleitores":5890,"colocacao":416,"votos":11,"pctVotos":0.0026,"lat":-22.5226,"lon":-46.65,"emendas":[],"indicacoes":[]},{"ibge":"3527108","nome":"Lins","populacao":76729,"eleitores":53823,"colocacao":140,"votos":105,"pctVotos":0.0028,"lat":-21.6718,"lon":-49.7526,"emendas":[],"indicacoes":[]},{"ibge":"3527207","nome":"Lorena","populacao":87370,"eleitores":60736,"colocacao":89,"votos":180,"pctVotos":0.0041,"lat":-22.7334,"lon":-45.1197,"emendas":[],"indicacoes":[]},{"ibge":"3527256","nome":"Lourdes","populacao":1968,"eleitores":1922,"colocacao":504,"votos":6,"pctVotos":0.0044,"lat":-20.966,"lon":-50.2263,"emendas":[],"indicacoes":[]},{"ibge":"3527306","nome":"Louveira","populacao":54111,"eleitores":39571,"colocacao":66,"votos":242,"pctVotos":0.0094,"lat":-23.0856,"lon":-46.9484,"emendas":[{"id":22,"segmento":"Saúde","objeto":"Custeio","valor":1000000,"status":"OK","ano":2023,"tipo":"Voluntária","lote":"Voluntárias - 2023","secretaria":"Saúde","beneficiario":"Louveira","codigoEmenda":null,"numeroIndicacao":"4155/2023","cancelada":"Não","validacao":"Confirmado","fonteValidacao":"Painel Power BI - Transferências Voluntárias 2023 - Dep. Estaduais (governo.sp.gov.br/sec_governo_relacoes/painel/voluntarias_estaduais_2023)","observacaoValidacao":"Confirmado individualmente no painel oficial (código, valor, cidade, indicação). Total R$ 11.000.000 confere exatamente - validando as correções de valor aplicadas (R$ 1.500.000 para Araçoiaba da Serra e Capivari; R$ 4.000.000 para Santa Casa de Santos).","observacoes":null}],"indicacoes":[]},{"ibge":"3527405","nome":"Lucélia","populacao":20372,"eleitores":13889,"colocacao":324,"votos":22,"pctVotos":0.0025,"lat":-21.7182,"lon":-51.0215,"emendas":[],"indicacoes":[]},{"ibge":"3527504","nome":"Lucianópolis","populacao":2419,"eleitores":2173,"colocacao":608,"votos":1,"pctVotos":0.0007,"lat":-22.4294,"lon":-49.522,"emendas":[],"indicacoes":[]},{"ibge":"3527603","nome":"Luís Antônio","populacao":12531,"eleitores":10293,"colocacao":323,"votos":22,"pctVotos":0.0033,"lat":-21.55,"lon":-47.7801,"emendas":[],"indicacoes":[]},{"ibge":"3527702","nome":"Luiziânia","populacao":4751,"eleitores":3850,"colocacao":595,"votos":2,"pctVotos":0.0007,"lat":-21.6737,"lon":-50.3294,"emendas":[],"indicacoes":[]},{"ibge":"3527801","nome":"Lupércio","populacao":4017,"eleitores":3413,"colocacao":0,"votos":0,"pctVotos":0,"lat":-22.4146,"lon":-49.818,"emendas":[],"indicacoes":[]},{"ibge":"3527900","nome":"Lutécia","populacao":2699,"eleitores":2420,"colocacao":564,"votos":3,"pctVotos":0.0017,"lat":-22.3384,"lon":-50.394,"emendas":[],"indicacoes":[]},{"ibge":"3528007","nome":"Macatuba","populacao":17120,"eleitores":12501,"colocacao":190,"votos":66,"pctVotos":0.0073,"lat":-22.5002,"lon":-48.7102,"emendas":[],"indicacoes":[]},{"ibge":"3528106","nome":"Macaubal","populacao":7587,"eleitores":5978,"colocacao":307,"votos":24,"pctVotos":0.0058,"lat":-20.8022,"lon":-49.9687,"emendas":[],"indicacoes":[]},{"ibge":"3528205","nome":"Macedônia","populacao":4048,"eleitores":4267,"colocacao":426,"votos":10,"pctVotos":0.0039,"lat":-20.1444,"lon":-50.1973,"emendas":[],"indicacoes":[]},{"ibge":"3528304","nome":"Magda","populacao":3212,"eleitores":2858,"colocacao":548,"votos":4,"pctVotos":0.0021,"lat":-20.6445,"lon":-50.2305,"emendas":[],"indicacoes":[]},{"ibge":"3528403","nome":"Mairinque","populacao":51660,"eleitores":38363,"colocacao":205,"votos":58,"pctVotos":0.0022,"lat":-23.5398,"lon":-47.185,"emendas":[],"indicacoes":[]},{"ibge":"3528502","nome":"Mairiporã","populacao":97399,"eleitores":64830,"colocacao":85,"votos":200,"pctVotos":0.0046,"lat":-23.3171,"lon":-46.5897,"emendas":[],"indicacoes":[]},{"ibge":"3528601","nome":"Manduri","populacao":10092,"eleitores":7096,"colocacao":593,"votos":2,"pctVotos":0.0004,"lat":-23.0056,"lon":-49.3202,"emendas":[],"indicacoes":[]},{"ibge":"3528700","nome":"Marabá Paulista","populacao":4627,"eleitores":3290,"colocacao":526,"votos":5,"pctVotos":0.0023,"lat":-22.1068,"lon":-51.9617,"emendas":[],"indicacoes":[]},{"ibge":"3528809","nome":"Maracaí","populacao":12826,"eleitores":10551,"colocacao":395,"votos":13,"pctVotos":0.0017,"lat":-22.6149,"lon":-50.6713,"emendas":[],"indicacoes":[]},{"ibge":"3528858","nome":"Marapoama","populacao":3392,"eleitores":2821,"colocacao":368,"votos":16,"pctVotos":0.0083,"lat":-21.2587,"lon":-49.13,"emendas":[],"indicacoes":[]},{"ibge":"3528908","nome":"Mariápolis","populacao":3539,"eleitores":2929,"colocacao":545,"votos":4,"pctVotos":0.0019,"lat":-21.7959,"lon":-51.1824,"emendas":[],"indicacoes":[]},{"ibge":"3529005","nome":"Marília","populacao":246627,"eleitores":172843,"colocacao":40,"votos":350,"pctVotos":0.0028,"lat":-22.2171,"lon":-49.9501,"emendas":[],"indicacoes":[{"id":23,"segmento":"Educação","objeto":"Climatização de escola estadual (ar-condicionado)","valorEstimado":null,"status":"Demanda em articulação - sem valor definido","categoria":"Climatização (Ar-condicionado)","escola":"EE Waldemar Moniz da Rocha Barros","prefeito":null,"vereador":null,"validacao":"Não localizado","fonteValidacao":"Painéis Power BI oficiais - Emendas Impositivas 2024/2025/2026 e Emendas Voluntárias 2023/2024/2025/2026 (governo.sp.gov.br/sec_governo_relacoes/painel), filtrados por Parlamentar = Paulo Mansur, consultados em 12/07/2026.","observacaoValidacao":"Item ainda não localizado como emenda parlamentar formalizada em nenhum dos 7 painéis oficiais de emendas de Paulo Mansur. Trata-se de demanda em fase de articulação política, sem código de emenda/indicação vinculado nos dados abertos do governo até o momento da consulta.","observacoes":null,"fonteArquivo":"Demandas Educação 2025.xlsx + CONSTRUÇÃO DE QUADRAS ESPORTIVAS e CLIMATIZAÇÃO.docx"}]},{"ibge":"3529104","nome":"Marinópolis","populacao":1870,"eleitores":1760,"colocacao":610,"votos":1,"pctVotos":0.0008,"lat":-20.4389,"lon":-50.8254,"emendas":[],"indicacoes":[]},{"ibge":"3529203","nome":"Martinópolis","populacao":25299,"eleitores":18410,"colocacao":276,"votos":29,"pctVotos":0.0022,"lat":-22.1462,"lon":-51.1709,"emendas":[],"indicacoes":[]},{"ibge":"3529302","nome":"Matão","populacao":80998,"eleitores":64592,"colocacao":65,"votos":243,"pctVotos":0.0057,"lat":-21.6025,"lon":-48.364,"emendas":[],"indicacoes":[]},{"ibge":"3529401","nome":"Mauá","populacao":429380,"eleitores":318437,"colocacao":24,"votos":599,"pctVotos":0.0028,"lat":-23.6677,"lon":-46.4613,"emendas":[],"indicacoes":[]},{"ibge":"3529500","nome":"Mendonça","populacao":6369,"eleitores":5278,"colocacao":468,"votos":8,"pctVotos":0.0023,"lat":-21.1757,"lon":-49.5791,"emendas":[],"indicacoes":[]},{"ibge":"3529609","nome":"Meridiano","populacao":4697,"eleitores":3821,"colocacao":609,"votos":1,"pctVotos":0.0004,"lat":-20.3579,"lon":-50.1811,"emendas":[],"indicacoes":[]},{"ibge":"3529658","nome":"Mesópolis","populacao":1988,"eleitores":1945,"colocacao":0,"votos":0,"pctVotos":0,"lat":-19.9684,"lon":-50.6326,"emendas":[],"indicacoes":[]},{"ibge":"3529708","nome":"Miguelópolis","populacao":19655,"eleitores":15418,"colocacao":316,"votos":23,"pctVotos":0.0022,"lat":-20.1796,"lon":-48.031,"emendas":[],"indicacoes":[]},{"ibge":"3529807","nome":"Mineiros do Tietê","populacao":11349,"eleitores":8830,"colocacao":206,"votos":58,"pctVotos":0.0096,"lat":-22.412,"lon":-48.451,"emendas":[],"indicacoes":[]},{"ibge":"3530003","nome":"Mira Estrela","populacao":3199,"eleitores":2921,"colocacao":594,"votos":2,"pctVotos":0.0011,"lat":-19.9789,"lon":-50.139,"emendas":[],"indicacoes":[]},{"ibge":"3529906","nome":"Miracatu","populacao":18679,"eleitores":15396,"colocacao":372,"votos":16,"pctVotos":0.0015,"lat":-24.2766,"lon":-47.4625,"emendas":[],"indicacoes":[]},{"ibge":"3530102","nome":"Mirandópolis","populacao":28737,"eleitores":18184,"colocacao":429,"votos":10,"pctVotos":0.0008,"lat":-21.1313,"lon":-51.1035,"emendas":[{"id":43,"segmento":"Saúde","objeto":"Custeio","valor":1400000,"status":null,"ano":2026,"tipo":"Voluntária","lote":"Voluntárias - 2026","secretaria":"Saúde","beneficiario":"Mirandópolis","codigoEmenda":null,"numeroIndicacao":"1014/26","cancelada":"Não","validacao":"Não localizado","fonteValidacao":"Painel Power BI - Transferências Voluntárias 2026 - Dep. Estaduais (governo.sp.gov.br/sec_governo_relacoes/painel/voluntarias_estaduais_2026)","observacaoValidacao":"Esta emenda NÃO foi localizada no painel oficial (consultado em 03/07/2026), que mostra apenas 6 registros de Paulo Mansur para 2026 (todos do lote de Abril, R$ 10.000.000). O município de Mirandópolis não consta em nenhum registro do painel para nenhum deputado, e o município de Buritama não tem nenhum registro de Paulo Mansur. Recomenda-se fortemente confirmar com o gabinete se estas 4 indicações (CBAMC, Santa Casa de Casa Branca, Mirandópolis, Buritama - R$ 11.000.000) foram de fato protocoladas/aprovadas, pois podem ter sido substituídas pelo lote de Abril ou ainda não processadas.","observacoes":null}],"indicacoes":[]},{"ibge":"3530201","nome":"Mirante do Paranapanema","populacao":16069,"eleitores":13302,"colocacao":342,"votos":19,"pctVotos":0.0021,"lat":-22.2904,"lon":-51.9084,"emendas":[],"indicacoes":[]},{"ibge":"3530300","nome":"Mirassol","populacao":65485,"eleitores":42987,"colocacao":150,"votos":94,"pctVotos":0.0031,"lat":-20.8169,"lon":-49.5206,"emendas":[],"indicacoes":[]},{"ibge":"3530409","nome":"Mirassolândia","populacao":4771,"eleitores":4197,"colocacao":525,"votos":5,"pctVotos":0.0017,"lat":-20.6179,"lon":-49.4617,"emendas":[],"indicacoes":[]},{"ibge":"3530508","nome":"Mococa","populacao":69324,"eleitores":49125,"colocacao":180,"votos":72,"pctVotos":0.0023,"lat":-21.4647,"lon":-47.0024,"emendas":[],"indicacoes":[]},{"ibge":"3530607","nome":"Mogi das Cruzes","populacao":468120,"eleitores":338340,"colocacao":25,"votos":557,"pctVotos":0.0025,"lat":-23.5208,"lon":-46.1854,"emendas":[],"indicacoes":[]},{"ibge":"3530706","nome":"Mogi Guaçu","populacao":159735,"eleitores":113236,"colocacao":41,"votos":338,"pctVotos":0.0043,"lat":-22.3675,"lon":-46.9428,"emendas":[],"indicacoes":[]},{"ibge":"3530805","nome":"Mogi Mirim","populacao":95534,"eleitores":67283,"colocacao":73,"votos":224,"pctVotos":0.005,"lat":-22.4332,"lon":-46.9532,"emendas":[],"indicacoes":[{"id":5,"segmento":"Educação","objeto":"Aquisição de ônibus escolar","valorEstimado":null,"status":"Demanda em articulação - sem valor definido","categoria":"Ônibus Escolar","escola":null,"prefeito":null,"vereador":null,"validacao":"Não localizado","fonteValidacao":"Painéis Power BI oficiais - Emendas Impositivas 2024/2025/2026 e Emendas Voluntárias 2023/2024/2025/2026 (governo.sp.gov.br/sec_governo_relacoes/painel), filtrados por Parlamentar = Paulo Mansur, consultados em 12/07/2026.","observacaoValidacao":"Item ainda não localizado como emenda parlamentar formalizada em nenhum dos 7 painéis oficiais de emendas de Paulo Mansur. Trata-se de demanda em fase de articulação política, sem código de emenda/indicação vinculado nos dados abertos do governo até o momento da consulta.","observacoes":null,"fonteArquivo":"VEÍCULOS E MÁQUINAS - PAULO MANSUR.docx"}]},{"ibge":"3530904","nome":"Mombuca","populacao":3815,"eleitores":3178,"colocacao":405,"votos":12,"pctVotos":0.0053,"lat":-22.9285,"lon":-47.559,"emendas":[],"indicacoes":[]},{"ibge":"3531001","nome":"Monções","populacao":1954,"eleitores":2149,"colocacao":0,"votos":0,"pctVotos":0,"lat":-20.8509,"lon":-50.0975,"emendas":[],"indicacoes":[]},{"ibge":"3531100","nome":"Mongaguá","populacao":64519,"eleitores":50536,"colocacao":74,"votos":221,"pctVotos":0.0071,"lat":-24.0809,"lon":-46.6265,"emendas":[],"indicacoes":[]},{"ibge":"3531209","nome":"Monte Alegre do Sul","populacao":8873,"eleitores":6320,"colocacao":390,"votos":14,"pctVotos":0.0032,"lat":-22.6817,"lon":-46.681,"emendas":[],"indicacoes":[]},{"ibge":"3531308","nome":"Monte Alto","populacao":48725,"eleitores":36596,"colocacao":127,"votos":119,"pctVotos":0.005,"lat":-21.2655,"lon":-48.4971,"emendas":[],"indicacoes":[]},{"ibge":"3531407","nome":"Monte Aprazível","populacao":22650,"eleitores":17138,"colocacao":198,"votos":60,"pctVotos":0.0052,"lat":-20.768,"lon":-49.7184,"emendas":[],"indicacoes":[]},{"ibge":"3531506","nome":"Monte Azul Paulista","populacao":18363,"eleitores":14476,"colocacao":241,"votos":37,"pctVotos":0.0037,"lat":-20.9065,"lon":-48.6387,"emendas":[],"indicacoes":[{"id":13,"segmento":"Educação","objeto":"Aquisição de equipamentos de informática (Chromebooks e notebooks)","valorEstimado":null,"status":"Demanda em articulação - sem valor definido","categoria":"Equipamentos de Informática (Chromebooks/Notebooks)","escola":"EE Bairro Cruzeiro","prefeito":null,"vereador":null,"validacao":"Não localizado","fonteValidacao":"Painéis Power BI oficiais - Emendas Impositivas 2024/2025/2026 e Emendas Voluntárias 2023/2024/2025/2026 (governo.sp.gov.br/sec_governo_relacoes/painel), filtrados por Parlamentar = Paulo Mansur, consultados em 12/07/2026.","observacaoValidacao":"Item ainda não localizado como emenda parlamentar formalizada em nenhum dos 7 painéis oficiais de emendas de Paulo Mansur. Trata-se de demanda em fase de articulação política, sem código de emenda/indicação vinculado nos dados abertos do governo até o momento da consulta.","observacoes":null,"fonteArquivo":"Demandas Educação 2025.xlsx"}]},{"ibge":"3531605","nome":"Monte Castelo","populacao":4301,"eleitores":3396,"colocacao":371,"votos":16,"pctVotos":0.0063,"lat":-21.2981,"lon":-51.5679,"emendas":[],"indicacoes":[]},{"ibge":"3531803","nome":"Monte Mor","populacao":67296,"eleitores":46681,"colocacao":64,"votos":243,"pctVotos":0.008,"lat":-22.945,"lon":-47.3122,"emendas":[],"indicacoes":[]},{"ibge":"3531704","nome":"Monteiro Lobato","populacao":4205,"eleitores":3936,"colocacao":524,"votos":5,"pctVotos":0.0018,"lat":-22.9544,"lon":-45.8407,"emendas":[],"indicacoes":[]},{"ibge":"3531902","nome":"Morro Agudo","populacao":28561,"eleitores":20154,"colocacao":210,"votos":55,"pctVotos":0.0039,"lat":-20.7288,"lon":-48.0581,"emendas":[],"indicacoes":[]},{"ibge":"3532009","nome":"Morungaba","populacao":14081,"eleitores":10609,"colocacao":214,"votos":54,"pctVotos":0.0074,"lat":-22.8811,"lon":-46.7896,"emendas":[],"indicacoes":[]},{"ibge":"3532058","nome":"Motuca","populacao":4079,"eleitores":3421,"colocacao":463,"votos":8,"pctVotos":0.0033,"lat":-21.5103,"lon":-48.1538,"emendas":[],"indicacoes":[]},{"ibge":"3532108","nome":"Murutinga do Sul","populacao":3763,"eleitores":3442,"colocacao":469,"votos":8,"pctVotos":0.0033,"lat":-20.9908,"lon":-51.2774,"emendas":[],"indicacoes":[]},{"ibge":"3532157","nome":"Nantes","populacao":2699,"eleitores":2302,"colocacao":0,"votos":0,"pctVotos":0,"lat":-22.6156,"lon":-51.24,"emendas":[],"indicacoes":[]},{"ibge":"3532207","nome":"Narandiba","populacao":5908,"eleitores":4446,"colocacao":611,"votos":1,"pctVotos":0.0003,"lat":-22.4057,"lon":-51.5274,"emendas":[],"indicacoes":[]},{"ibge":"3532306","nome":"Natividade da Serra","populacao":7134,"eleitores":5790,"colocacao":466,"votos":8,"pctVotos":0.002,"lat":-23.3707,"lon":-45.4468,"emendas":[],"indicacoes":[]},{"ibge":"3532405","nome":"Nazaré Paulista","populacao":18620,"eleitores":14574,"colocacao":285,"votos":28,"pctVotos":0.0029,"lat":-23.1747,"lon":-46.3983,"emendas":[],"indicacoes":[]},{"ibge":"3532504","nome":"Neves Paulista","populacao":9921,"eleitores":7108,"colocacao":439,"votos":9,"pctVotos":0.0018,"lat":-20.843,"lon":-49.6358,"emendas":[],"indicacoes":[]},{"ibge":"3532603","nome":"Nhandeara","populacao":9944,"eleitores":7940,"colocacao":275,"votos":29,"pctVotos":0.0053,"lat":-20.6945,"lon":-50.0436,"emendas":[],"indicacoes":[]},{"ibge":"3532702","nome":"Nipoã","populacao":4860,"eleitores":3985,"colocacao":341,"votos":20,"pctVotos":0.0078,"lat":-20.9114,"lon":-49.7833,"emendas":[],"indicacoes":[]},